stop_lat,stop_code,stop_lon,stop_id,stop_name,,,
38.625807,103,-121.475353,103,NORTHGATE BLVD & WINTER GARDEN AVE (NB),,,
38.525752,105,-121.520596,105,I-5 FWY & SEAMAS AVE (NB),,,
38.57423,107,-121.503227,107,Q ST & 5TH ST (EB),,,
38.573513,108,-121.500527,108,Q ST & 7TH ST (EB),,,
38.572819,109,-121.497856,109,Q ST & 9TH ST (EB),,,
38.572495,110,-121.496666,110,Q ST & 10TH ST (EB),,,
38.572105,111,-121.495422,111,Q ST & 11TH ST (EB),,,
38.571343,112,-121.492424,112,Q ST & 13TH ST (EB),,,
38.577812,113,-121.486961,113,15TH ST & K ST (SB),,,
38.581653,116,-121.50313,116,3RD ST & K ST (NB),,,
38.572679,123,-121.49835,123,9TH ST & Q ST (SB),,,
38.569313,125,-121.499817,125,9TH ST & T ST (SB),,,
38.567246,126,-121.500717,126,9TH ST & V ST (SB),,,
38.566151,127,-121.501259,127,9TH ST & W ST (SB),,,
38.563839,128,-121.501083,128,BROADWAY & 10TH ST (EB),,,
38.562756,130,-121.498886,130,RIVERSIDE BLVD & BROADWAY (SB),,,
38.561062,131,-121.499649,131,RIVERSIDE BLVD & BEVERLY WAY (SB),,,
38.55946,132,-121.500572,132,RIVERSIDE BLVD & CASTRO WAY (SB),,,
38.557182,133,-121.501877,133,RIVERSIDE BLVD & FREMONT WAY (SB),,,
38.555843,134,-121.502678,134,RIVERSIDE BLVD & 3RD AVE (SB),,,
38.554222,135,-121.503639,135,RIVERSIDE BLVD & SWANSTON DR (SB),,,
38.552261,136,-121.504776,136,RIVERSIDE BLVD & MARIAN WAY (SB),,,
38.551373,137,-121.505272,137,RIVERSIDE BLVD & 6TH AVE (SB),,,                              
38.549553,138,-121.506332,138,RIVERSIDE BLVD & 8TH AVE (SB),,,
38.54773,139,-121.507477,139,RIVERSIDE BLVD & 10TH AVE (SB),,,
38.543701,141,-121.508957,141,RIVERSIDE BLVD & DARNEL WAY (SB),,,
38.541939,142,-121.509415,142,RIVERSIDE BLVD & SHERBURN AVE (SB),,,
38.540775,143,-121.509827,143,RIVERSIDE BLVD & SUTTERVILLE RD (SB),,,
38.539291,144,-121.511589,144,RIVERSIDE BLVD & SUTTERVILLE RD 2 (SB),,,
38.537777,145,-121.513397,145,RIVERSIDE BLVD & BROWNWYK DR (SB),,,
38.536514,146,-121.514763,146,RIVERSIDE BLVD & DERICK WAY (SB),,,
38.534294,147,-121.51619,147,RIVERSIDE BLVD & 25TH AVE (SB),,,
38.53199,148,-121.518105,148,RIVERSIDE BLVD & RIO LN (SB),,,
38.53035,149,-121.518425,149,RIVERSIDE BLVD & PIEDMONT DR (SB),,,
38.529118,150,-121.519249,150,RIVERSIDE BLVD & CASILADA WAY (SB),,,
38.527191,151,-121.521141,151,RIVERSIDE BLVD & DORSET WAY (SB),,,
38.524288,152,-121.522385,152,RIVERSIDE BLVD & SURF WAY (SB),,,
38.523098,153,-121.521843,153,35TH AVE & RIVERSIDE BLVD (EB),,,
38.522359,154,-121.518306,154,35TH AVE & LONSDALE DR (EB),,,
38.521542,155,-121.514282,155,35TH AVE & GLORIA DR (EB),,,
38.525379,156,-121.522408,156,RIVERSIDE BLVD & SEAMAS AVE (SB),,,
38.51001,157,-121.543228,157,RIVERSIDE BLVD & FLORIN RD (WB),,,
38.508339,158,-121.544983,158,RIVERSIDE BLVD & PARK RIVIERA WAY (WB),,,
38.506664,159,-121.544922,159,RIVERSIDE BLVD & GALLEY CT (WB),,,
38.504536,160,-121.546158,160,RIVERSIDE BLVD & ASHORE WAY (WB),,,
38.501598,161,-121.548676,161,RIVERSIDE BLVD & ORLEANS WAY (WB),,,
38.498074,162,-121.551804,162,RIVERSIDE BLVD & RIVERTREE WAY (WB),,,
38.495808,163,-121.553009,163,POCKET RD & PORTINAO CIR 1 (SB),,,
38.49427,164,-121.552528,164,POCKET RD & PORTINAO CIR 2 (SB),,,
38.49107,165,-121.550842,165,POCKET RD & RIVER ISLE WAY (EB),,,
38.486843,166,-121.547821,166,POCKET RD & PINIOS RIVER CT (SB),,,
38.485031,167,-121.54615,167,POCKET RD & HATTERAS WAY (SB),,,
38.480396,168,-121.540794,168,POCKET RD & BLUE DOLPHIN WAY (SB),,,
38.478485,169,-121.537254,169,POCKET RD & BLACKWATER WAY (WB),,,
38.476799,170,-121.532997,170,POCKET RD & WEST SHORE DR (EB),,,
38.478218,171,-121.520729,171,POCKET RD & EAST SHORE DR (EB),,,
38.480805,172,-121.515205,172,POCKET RD & GREENHAVEN DR (EB),,,
38.482952,173,-121.5439,173,POCKET RD & RIVER VILLAGE DR (SB),,,
38.513241,175,-121.532623,175,HAVENSIDE DR & RIVERSIDE BLVD (SB),,,
38.507832,178,-121.531197,178,HAVENSIDE DR & SAIL CT (SB),,,
38.505993,179,-121.530027,179,GLORIA DR & HAVENSIDE DR (EB),,,
38.506619,180,-121.527573,180,GLORIA DR & SENIOR WAY (EB),,,
38.506985,181,-121.526405,181,GLORIA DR & TRESTLE GLEN WAY (EB),,,
38.508587,182,-121.524045,182,GREENHAVEN DR & GLORIA RD (NB),,,
38.509778,183,-121.523624,183,GREENHAVEN DR & SUNLIT CIR (NB),,,
38.511677,184,-121.524684,184,GREENHAVEN DR & LEAF AVE (NB),,,
38.512858,185,-121.525456,185,GREENHAVEN DR & ROYAL GREEN AVE (NB),,,
38.514553,186,-121.527245,186,GREENHAVEN DR & RIVERSIDE BLVD (NB),,,
38.515766,187,-121.524597,187,43RD AVE & JOHNFER WAY (EB),,,
38.516205,189,-121.519508,189,43RD AVE & WOODSHIRE WAY (EB),,,
38.518273,190,-121.518466,190,GLORIA DR & LAKE GLEN WAY (NB),,,
38.519467,191,-121.516278,191,GLORIA DR & LAKE CREST WAY (NB),,,
38.520911,192,-121.514178,192,GLORIA DR & 35TH AVE (NB),,,
38.522642,193,-121.518885,193,35TH AVE & LONSDALE DR (WB),,,
38.523215,194,-121.521674,194,35TH AVE & RIVERSIDE BLVD (WB),,,
38.52401,195,-121.522203,195,RIVERSIDE BLVD & SURF WAY (NB),,,
38.525459,196,-121.522301,196,RIVERSIDE BLVD & SEAMAS AVE (NB),,,
38.526936,197,-121.52124,197,RIVERSIDE BLVD & DORSET WAY (NB),,,
38.528713,198,-121.519244,198,RIVERSIDE BLVD & CASILADA WAY (NB),,,
38.530299,199,-121.51826,199,RIVERSIDE BLVD & PIEDMONT DR (NB),,,
38.531854,200,-121.517909,200,RIVERSIDE BLVD & RIO LN (NB),,,
38.534646,201,-121.515943,201,RIVERSIDE BLVD & WEBER WAY (NB),,,
38.536419,202,-121.514687,202,RIVERSIDE BLVD & DERICK WAY (NB),,,
38.537601,203,-121.513378,203,RIVERSIDE BLVD & BROWNWYK DR (NB),,,
38.539116,204,-121.511627,204,RIVERSIDE BLVD & SUTTERVILLE RD 1 (NB),,,
38.539984,205,-121.510296,205,RIVERSIDE BLVD & SUTTERVILLE RD 2 (NB),,,
38.541811,206,-121.509165,206,RIVERSIDE BLVD & SHERBURN AVE (NB),,,
38.543481,207,-121.508749,207,RIVERSIDE BLVD & DARNEL WAY (NB),,,
38.546523,208,-121.50803,208,RIVERSIDE BLVD & 12TH AVE (NB),,,
38.548241,209,-121.506933,209,RIVERSIDE BLVD & 10TH AVE (NB),,,
38.549827,210,-121.505973,210,RIVERSIDE BLVD & 8TH AVE (NB),,,
38.551396,211,-121.505066,211,RIVERSIDE BLVD & PERKINS WAY (NB),,,
38.552275,212,-121.504557,212,RIVERSIDE BLVD & MARIAN WAY (NB),,,
38.554114,213,-121.503449,213,RIVERSIDE BLVD & SWANSTON DR (NB),,,
38.555736,214,-121.502507,214,RIVERSIDE BLVD & 3RD AVE (NB),,,
38.556963,215,-121.501807,215,RIVERSIDE BLVD & FREMONT WAY (NB),,,
38.558471,216,-121.500925,216,RIVERSIDE BLVD & CASTRO WAY (NB),,,
38.55965,217,-121.50023,217,RIVERSIDE BLVD & 2ND AVE (NB),,,
38.560872,218,-121.499514,218,RIVERSIDE BLVD & BEVERLY WAY (NB),,,
38.561969,219,-121.498919,219,RIVERSIDE BLVD & BROADWAY (NB),,,
38.584359,221,-121.496284,221,7TH ST & G ST (SB),,,
38.583336,222,-121.496719,222,7TH ST & H ST (SB),,,
38.581536,223,-121.497493,223,7TH ST & J ST (SB),,,
38.577652,225,-121.499153,225,7TH ST & CAPITOL AVE (SB),,,
38.57576,226,-121.499947,226,7TH ST & O ST (SB),,,
38.562885,227,-121.497604,227,BROADWAY & RIVERSIDE BLVD (EB),,,
38.56202,229,-121.49427,229,BROADWAY & 15TH ST (EB),,,
38.561192,230,-121.490929,230,BROADWAY & 17TH ST (EB),,,
38.560837,231,-121.489693,231,BROADWAY & 18TH ST (EB),,,
38.560391,232,-121.488037,232,BROADWAY & FREEPORT BLVD (EB),,,
38.559696,233,-121.485405,233,BROADWAY & 21ST ST (EB),,,
38.558601,234,-121.481361,234,BROADWAY & 24TH ST (EB),,,
38.55809,235,-121.47937,235,BROADWAY & 26TH ST (EB),,,
38.557407,236,-121.476814,236,BROADWAY & 28TH ST (EB),,,
38.621777,241,-121.424434,241,ARCADE & MARCONI LRT (NB),,,
38.465859,242,-121.417026,242,TIMBERLAKE WY & BRUCEVILLE RD (EB),,,
38.464688,243,-121.414715,243,TIMBERLAKE WY & HOSPITAL DR (SB),,,
38.462193,244,-121.413563,244,TIMBERLAKE WY & RICHARDSON CT (SB),,,
38.519589,246,-121.51635,246,GLORIA DR & ROSA DEL RIO WAY (SB),,,
38.518261,247,-121.518677,247,GLORIA DR & LAKE GLEN WAY (SB),,,
38.516331,248,-121.519852,248,43RD AVE & WOODSHIRE WAY (WB),,,
38.516177,249,-121.514958,249,43RD AVE & SLP DR (WB),,,
38.516197,250,-121.524056,250,43RD AVE & VALINE CT (WB),,,
38.51384,251,-121.526459,251,GREENHAVEN DR & RIVERSIDE BLVD (SB),,,
38.512581,252,-121.525574,252,GREENHAVEN DR & ROYAL GREEN AVE (SB),,,
38.51136,253,-121.524757,253,GREENHAVEN DR & STARLIT CIR (SB),,,
38.509586,254,-121.523888,254,GREENHAVEN DR & SUNLIT CIR (SB),,,
38.507897,255,-121.524513,255,GLORIA DR & GREENHAVEN DR (WB),,,
38.506695,257,-121.527809,257,GLORIA DR & SENIOR WAY (WB),,,
38.506386,258,-121.530434,258,HAVENSIDE DR & GLORIA DR (NB),,,
38.507685,259,-121.530947,259,HAVENSIDE DR & SPRINGBROOK CIR (NB),,,
38.509641,260,-121.531706,260,HAVENSIDE DR & LAKESHORE CIR (NB),,,
38.51169,261,-121.532508,261,HAVENSIDE DR & PARKLIN AVE (NB),,,
38.512957,262,-121.532342,262,HAVENSIDE DR & RIVERSIDE BLVD (NB),,,
38.511475,263,-121.540522,263,RIVERSIDE BLVD & LELAND HAVEN WY (WB),,,
38.512945,264,-121.535773,264,RIVERSIDE BLVD & CLIPPER WY (WB),,,
38.713511,265,-121.365453,265,ELVERTA RD & WALERGA RD (WB),,,
38.558525,274,-121.428551,274,ELVAS AVE & 62ND ST (NB),,,
38.564533,275,-121.42614,275,CARLSON DR & STATE UNIV DRIVE NORTH (EB),,,
38.560364,276,-121.42997,276,ELVAS AVE & 63RD ST (SB),,,
38.583007,281,-121.499594,281,5TH ST & I ST (NB),,,
38.584547,282,-121.500163,282,AMTRAK & DEPOT (WB),,,
38.607159,284,-121.457247,284,DEL PASO BLVD & HAWTHORNE (SB),,,
38.458358,286,-121.41716,286,BRUCEVILLE RD & COSUMNES BLVD (NB),,,
38.481628,287,-121.469393,287,MEADOWVIEW RD & DETROIT BLVD (WB),,,
38.552638,288,-121.427245,288,UNIVERSITY/65TH LRT & BAY 2 (EB),,,
38.552792,290,-121.427206,290,UNIVERSITY/65TH LRT & BAY 4 (WB),,,
38.552704,291,-121.427469,291,UNIVERSITY/65TH LRT & BAY 1 (EB),,,
38.560223,297,-121.442566,297,FOLSOM BLVD & RODEO WAY (WB),,,
38.560837,298,-121.444145,298,FOLSOM BLVD & 51ST ST (WB),,,
38.562416,300,-121.448212,300,FOLSOM BLVD & 46TH ST (WB),,,
38.562843,301,-121.449333,301,FOLSOM BLVD & 45TH ST (WB),,,
38.563698,302,-121.452049,302,FOLSOM BLVD & 43RD ST (WB),,,
38.564262,303,-121.454178,303,FOLSOM BLVD & 41ST ST (WB),,,
38.552838,307,-121.426826,307,UNIVERSITY/65TH LRT & BAY 5 (SB),,,
38.552578,316,-121.427031,316,UNIVERSITY/65TH LRT & BAY 3 (EB),,,
38.584008,318,-121.311234,318,MATHER LRS & BAY 1 (NB),,,
38.584219,319,-121.311259,319,MATHER LRS & BAY 2 (NB),,,
38.564793,320,-121.503151,320,8TH ST & BROADWAY (NB),,,
38.567338,321,-121.501898,321,8TH ST & W ST (NB),,,
38.570217,322,-121.500755,322,8TH ST & T ST (NB),,,
38.584284,323,-121.311643,323,MATHER LRS & BAY 3 (WB),,,
38.574669,325,-121.498848,325,8TH ST & P ST (NB),,,
38.575768,326,-121.498346,326,8TH ST & O ST (NB),,,
38.576787,327,-121.497859,327,8TH ST & N ST (NB),,,
38.578054,328,-121.497269,328,8TH ST & CAPITOL AVE (NB),,,
38.580222,329,-121.496363,329,8TH ST & K ST (EB),,,
38.582222,330,-121.495496,330,8TH ST & I ST (NB),,,
38.583449,331,-121.494978,331,8TH ST & H ST (NB),,,
38.584538,333,-121.491348,333,F ST & 10TH ST (EB),,,
38.583839,334,-121.488686,334,F ST & 12TH ST (EB),,,
38.583107,335,-121.485771,335,F ST & 14TH ST (EB),,,
38.583958,336,-121.311613,336,MATHER LRS & BAY 4 (SB),,,
38.582405,337,-121.483139,337,F ST & 16TH ST (EB),,,
38.581715,338,-121.480484,338,F ST & 18TH ST (EB),,,
38.581238,339,-121.47876,339,F ST & 19TH ST (EB),,,
38.580589,340,-121.476379,340,F ST & 21ST ST (EB),,,
38.579918,341,-121.473869,341,F ST & 23RD ST (EB),,,
38.579247,342,-121.471253,342,F ST & 25TH ST (EB),,,
38.578533,343,-121.468582,343,F ST & 27TH ST (EB),,,
38.578156,344,-121.467171,344,F ST & 28TH ST (EB),,,
38.577778,345,-121.46579,345,F ST & 29TH ST (EB),,,
38.577418,346,-121.463106,346,ALHAMBRA BLVD & F ST (NB),,,
38.576989,349,-121.458398,349,MCKINLEY BLVD & 34TH ST (EB),,,
38.576438,350,-121.456258,350,MCKINLEY BLVD & SANTA YNEZ WAY (EB),,,
38.576054,351,-121.454566,351,MCKINLEY BLVD & 37TH ST (EB),,,
38.576536,352,-121.452093,352,MCKINLEY BLVD & D ST (EB),,,
38.577047,353,-121.449885,353,MCKINLEY BLVD & SAN ANTONIO WAY (EB),,,
38.57632,357,-121.442565,357,BRAND WAY & 45TH ST (EB),,,
38.575749,358,-121.440403,358,BRAND WAY & FALLON LN (EB),,,
38.575082,359,-121.437882,359,BRAND WAY & 51ST ST (EB),,,
38.573719,360,-121.437821,360,51ST ST & C ST (SB),,,
38.570343,365,-121.437004,365,F ST & EL DORADO WAY (EB),,,
38.570492,366,-121.434897,366,F ST & 54TH ST (EB),,,
38.570605,367,-121.433564,367,F ST & ELVAS AVE (EB),,,
38.568176,368,-121.434021,368,ELVAS AVE & 56TH ST (SB),,,
38.567455,369,-121.430191,369,H ST & CARLSON DR (EB),,,
38.567766,371,-121.42965,371,H ST & CARLSON DR (WB),,,
38.567959,372,-121.433922,372,56TH ST & H ST (NB),,,
38.570725,373,-121.43383,373,F ST & ELVAS AVE (WB),,,
38.570515,374,-121.435295,374,F ST & 54TH ST (WB),,,
38.570416,375,-121.43676,375,F ST & 53RD ST (WB),,,
38.553745,377,-121.372688,377,WATT/MANLOVE LRS & BAY 2 (SB),,,
38.553936,378,-121.372528,378,WATT/MANLOVE LRS & BAY 1 (EB),,,
38.558678,380,-121.486323,380,21ST ST & 1ST AVE (SB),,,
38.574042,383,-121.437652,383,51ST ST & B ST (NB),,,
38.574864,384,-121.437576,384,51ST ST & BRAND WAY (NB),,,
38.575888,385,-121.44054,385,BRAND WAY & FALLON LN (WB),,,
38.576536,386,-121.442659,386,45TH ST & BRAND WAY (NB),,,
38.578522,390,-121.447388,390,MCKINLEY BLVD & MEISTER WY (WB),,,
38.577278,391,-121.449295,391,MCKINLEY BLVD & 40TH ST (WB),,,
38.576706,392,-121.451798,392,MCKINLEY BLVD & 39TH ST (WB),,,
38.576187,393,-121.45398,393,MCKINLEY BLVD & 37TH ST (WB),,,
38.57629,394,-121.455475,394,MCKINLEY BLVD & 36TH ST (WB),,,
38.576725,395,-121.456929,395,MCKINLEY BLVD & 35TH ST (WB),,,
38.577299,396,-121.459074,396,MCKINLEY BLVD & 33RD ST (WB),,,
38.577961,397,-121.463013,397,ALHAMBRA BLVD & MCKINLEY BLVD (SB),,,
38.577622,398,-121.464951,398,F ST & 30TH ST (WB),,,
38.578041,399,-121.466429,399,F ST & 29TH ST (WB),,,
38.578725,400,-121.468821,400,F ST & 27TH ST (WB),,,
38.579454,401,-121.471649,401,F ST & 25TH ST (WB),,,
38.580163,402,-121.474272,402,F ST & 23RD ST (WB),,,
38.58084,403,-121.476833,403,F ST & 21ST ST (WB),,,
38.581228,404,-121.478292,404,F ST & 20TH ST (WB),,,
38.581939,405,-121.480878,405,F ST & 18TH ST (WB),,,
38.582656,406,-121.483608,406,F ST & 16TH ST (WB),,,
38.583352,407,-121.486213,407,F ST & 14TH ST (WB),,,
38.584122,408,-121.489126,408,F ST & 12TH ST (WB),,,
38.584828,409,-121.491762,409,F ST & 10TH ST (WB),,,
38.585218,410,-121.493935,410,F ST & 8TH ST (EB),,,
38.556132,411,-121.487275,411,21ST ST & 2ND AVE (SB),,,
38.582261,413,-121.501131,413,J ST & 4TH ST (EB),,,
38.581602,414,-121.498661,414,J ST & 6TH ST (EB),,,
38.580997,415,-121.496433,415,J ST & 8TH ST (EB),,,
38.580536,416,-121.494675,416,J ST & 9TH ST (EB),,,
38.580172,417,-121.493294,417,J ST & 10TH ST (EB),,,
38.579758,418,-121.491717,418,J ST & 11TH ST (EB),,,
38.509147,425,-121.5316,425,HAVENSIDE DR & LAKESHORE CIR (SB),,,
38.564235,439,-121.454496,439,FOLSOM BLVD & 41ST ST (EB),,,
38.563892,440,-121.453049,440,FOLSOM BLVD & 42ND ST (EB),,,
38.56369,441,-121.452248,441,FOLSOM BLVD & 43RD ST (EB),,,
38.562582,442,-121.448917,442,FOLSOM BLVD & 46TH ST (EB),,,
38.562164,443,-121.447739,443,FOLSOM BLVD & 47TH ST (EB),,,
38.561115,444,-121.445191,444,FOLSOM BLVD & 49TH ST (EB),,,
38.560436,445,-121.443405,445,FOLSOM BLVD & 51ST ST (EB),,,
38.559593,446,-121.441254,446,FOLSOM BLVD & 53RD ST (EB),,,
38.634099,447,-121.222222,447,HAZEL AVE & NIMBUS RD (NB),,,
38.501388,450,-121.516492,450,56TH AVE & 13TH ST (WB),,,
38.636494,453,-121.310863,453,FAIR OAKS BLVD & MARSHALL AVE (EB),,,
38.574879,455,-121.500694,455,P ST & 7TH ST (WB),,,
38.575611,456,-121.503319,456,P ST & 5TH ST (WB),,,
38.525547,458,-121.521996,458,I-5 FWY & SEAMAS AVE (SB),,,
38.581572,459,-121.400801,459,NORTHROP AVE & EVELYN LN (WB),,,
38.506863,465,-121.511261,465,SLP DR & 13TH ST (EB),,,
38.50545,466,-121.509745,466,SLP DR & 14TH ST (EB),,,
38.503382,467,-121.507424,467,SLP DR & SLP DR (SB),,,
38.502257,468,-121.508261,468,SLP DR & LOS PADRES WAY (SB),,,
38.500822,469,-121.510023,469,SLP DR & 56TH AVE (SB),,,
38.49776,470,-121.510302,470,SLP DR & 58TH AVE (SB),,,
38.496822,471,-121.511632,471,SLP DR & FLORIN RD (NB),,,
38.494755,472,-121.512047,472,SLP DR & FLORIN RD (SB),,,
38.492132,473,-121.511315,473,SLP DR & SILVER RIDGE WAY (SB),,,
38.490188,474,-121.511315,474,SLP DR & SUNLAND VISTA AVE (NB),,,
38.489162,475,-121.512837,475,SLP DR & WILLOW LAKE WAY (WB),,,
38.487766,476,-121.517563,476,GREENHAVEN DR & SLP DR (SB),,,
38.486225,477,-121.517502,477,GREENHAVEN DR & HERITAGE WOOD CIR (SB),,,
38.482957,478,-121.517732,478,GREENHAVEN DR & RUSH RIVER DR (SB),,,
38.481172,480,-121.507242,480,POCKET RD & ALMA VISTA WAY (EB),,,
38.481247,481,-121.500943,481,MEADOWVIEW RD & AMHERST ST (EB),,,
38.481298,482,-121.497407,482,MEADOWVIEW RD & HENRIETTA DR (EB),,,
38.481347,483,-121.494088,483,MEADOWVIEW RD & 19TH ST (EB),,,
38.481377,484,-121.491425,484,MEADOWVIEW RD & MANORSIDE DR (EB),,,
38.481383,485,-121.4863,485,MEADOWVIEW RD & 22ND ST (EB),,,
38.481384,486,-121.479904,486,MEADOWVIEW RD & 24TH ST (EB),,,
38.481427,487,-121.474578,487,MEADOWVIEW RD & CORAL GABLES CT (EB),,,
38.481433,488,-121.472055,488,MEADOWVIEW RD & 29TH ST (EB),,,
38.481462,489,-121.468142,489,MEADOWVIEW RD & DETROIT BLVD (EB),,,
38.481473,490,-121.46532,490,MEADOWVIEW RD & G PKWY (EB),,,
38.481568,491,-121.460432,491,BROOKFIELD DR & TEAK WAY (EB),,,
38.481855,492,-121.457532,492,BROOKFIELD DR & MEADOWSTONE DR (EB),,,
38.482045,493,-121.454948,493,BROOKFIELD DR & VALLEY WIND WAY (EB),,,
38.482025,494,-121.45316,494,FRANKLIN BLVD & BROOKFIELD DR (SB),,,
38.545606,496,-121.344434,496,KIEFER BLVD & MAYHEW RD (WB),,,
38.48156,497,-121.481011,497,MEADOWVIEW RD & 24TH ST (WB),,,
38.481506,498,-121.487244,498,MEADOWVIEW RD & TAMOSHANTER WAY (WB),,,
38.481495,500,-121.493973,500,MEADOWVIEW RD & 21ST ST (WB),,,
38.481438,501,-121.497124,501,MEADOWVIEW RD & HENRIETTA DR (WB),,,
38.481384,502,-121.500565,502,MEADOWVIEW RD & AMHERST ST (WB),,,
38.481361,503,-121.507065,503,POCKET RD & ALMA VISTA WAY (WB),,,
38.481037,504,-121.516388,504,GREENHAVEN DR & POCKET RD (NB),,,
38.482933,505,-121.517472,505,GREENHAVEN DR & ALDER TREE WAY (NB),,,
38.486004,506,-121.517304,506,GREENHAVEN DR & HERITAGE WOOD CIR (NB),,,
38.487671,507,-121.517296,507,GREENHAVEN DR & SLP DR (NB),,,
38.489177,508,-121.512276,508,SLP DR & WILLOW LAKE WAY (EB),,,
38.490457,509,-121.511171,509,SLP DR & SUNLAND VISTA AVE (NB),,,
38.492613,510,-121.511203,510,SLP DR & SILVER RIDGE WAY (NB),,,
38.494608,511,-121.511694,511,SLP DR & FARMDALE WAY (NB),,,
38.496438,513,-121.511831,513,SLP DR & FLORIN RD (NB),,,
38.498365,514,-121.510055,514,SLP DR & 58TH AVE (NB),,,
38.50071,515,-121.50995,515,SLP DR & 56TH AVE (NB),,,
38.502093,516,-121.508207,516,SLP DR & BUENA TERRA WAY (NB),,,
38.503393,517,-121.50722,517,SLP DR & SLP DR (EB),,,
38.50545,518,-121.509516,518,SLP DR & 14TH ST (NB),,,
38.574249,519,-121.479843,519,L ST & 21ST ST (WB),,,
38.574993,521,-121.482491,521,L ST & 19TH ST (WB),,,
38.575684,522,-121.485176,522,L ST & 17TH ST (WB),,,
38.576819,525,-121.48919,525,L ST & 14TH ST (WB),,,
38.577934,526,-121.493614,526,L ST & 11TH ST (WB),,,
38.578687,528,-121.496282,528,L ST & 9TH ST (WB),,,
38.580293,531,-121.50218,531,L ST & 4TH ST (WB),,,
38.597134,532,-121.502068,532,RICHARDS BLVD & BERCUT DR (EB),,,
38.596558,533,-121.494171,533,RICHARDS BLVD & NORTH 05TH ST (EB),,,
38.59523,536,-121.483711,536,RICHARDS BLVD & DOS RIOS ST (EB),,,
38.594193,537,-121.480525,537,SUNBEAM AVE & RICHARDS BLVD (SB),,,
38.592254,538,-121.478955,538,16TH ST & BASLER ST (NB),,,
38.652966,543,-121.511675,543,TRUXEL RD & TERRACINA DR (NB),,,
38.661043,544,-121.388304,544,DUDLEY BLVD & PEACEKEEPER WAY (SB),,,
38.608465,545,-121.454023,545,DEL PASO BLVD & WINNIPEG ST (NB),,,
38.610794,547,-121.449287,547,DEL PASO BLVD & EL CAMINO AVE (NB),,,
38.61153,548,-121.447861,548,DEL PASO BLVD & EL CAMINO AVE (NB),,,
38.612827,549,-121.446182,549,DEL PASO BLVD & BOXWOOD ST (NB),,,
38.626499,558,-121.427574,558,ARCADE BLVD & DIGGS PARK DR (WB),,,
38.625851,559,-121.432907,559,MARYSVILLE BLVD & ARCADE BLVD (NB),,,
38.629074,560,-121.431603,560,MARYSVILLE BLVD & LOS ROBLES BLVD 1 (NB),,,
38.630276,561,-121.431206,561,MARYSVILLE BLVD & LOS ROBLES BLVD 2 (NB),,,
38.63311,562,-121.430512,562,MARYSVILLE BLVD & SOUTH AVE (NB),,,
38.650166,563,-121.351067,563,ORANGE GROVE AVE & COLLEGE OAK DR (WB),,,
38.648613,565,-121.35701,565,ORANGE GROVE AVE & PASADENA AVE (WB),,,
38.647107,566,-121.36137,566,AUBURN BLVD & ORANGE GROVE AVE (WB),,,
38.644847,567,-121.363992,567,AUBURN BLVD & JONES RD (WB),,,
38.641755,568,-121.369753,568,AUBURN BLVD & NORRIS AVE (WB),,,
38.640165,570,-121.375018,570,AUBURN BLVD & PASADENA AVE (WB),,,
38.63823,573,-121.380423,573,AUBURN BLVD & WATT AVE (WB),,,
38.637245,574,-121.411606,574,WINTERS ST & GRAND AVE (SB),,,
38.636498,575,-121.413841,575,GRAND AVE & RIPLEY ST (WB),,,
38.636524,576,-121.416374,576,GRAND AVE & ASTORIA ST (WB),,,
38.636505,577,-121.419197,577,GRAND AVE & DAYTON ST (WB),,,
38.636463,579,-121.423561,579,GRAND AVE & MAHOGANY ST (WB),,,
38.636501,580,-121.427124,580,GRAND AVE & JASMINE ST (WB),,,
38.636139,581,-121.430016,581,MARYSVILLE BLVD & GRAND AVE (SB),,,
38.633648,582,-121.430603,582,MARYSVILLE BLVD & SOUTH AVE (SB),,,
38.630627,583,-121.43132,583,MARYSVILLE BLVD & LOS ROBLES BLVD (SB),,,
38.628582,584,-121.432037,584,MARYSVILLE BLVD & LOS ROBLES BLVD (SB),,,
38.62549,585,-121.432303,585,ARCADE BLVD & MARYSVILLE BLVD (EB),,,
38.626312,586,-121.427368,586,ARCADE BLVD & DEL PASO BLVD (EB),,,
38.613758,593,-121.445389,593,DEL PASO BLVD & LAMPASAS AVE (SB),,,
38.611481,594,-121.448349,594,DEL PASO BLVD & EL CAMINO AVE (SB),,,
38.610859,595,-121.449608,595,DEL PASO BLVD & EL CAMINO AVE (SB),,,
38.6088,596,-121.453815,596,DEL PASO BLVD & WINNIPEG ST (SB),,,
38.533683,601,-121.47369,601,21ST AVE & FRANKLIN BLVD (WB),,,
38.59536,603,-121.484963,603,RICHARDS BLVD & DOS RIOS ST (WB),,,
38.595181,604,-121.487404,604,RICHARDS BLVD & NORTH 10TH ST (WB),,,
38.596153,605,-121.491776,605,RICHARDS BLVD & NORTH 07TH ST (WB),,,
38.597149,606,-121.495621,606,RICHARDS BLVD & NORTH 05TH ST (WB),,,
38.597332,607,-121.501824,607,RICHARDS BLVD & BERCUT DR (WB),,,
38.597279,608,-121.49794,608,RICHARDS BLVD & SEQUOIA PACIFIC BLVD (WB),,,
38.538641,609,-121.391979,609,BELVEDERE AVE & FLORIN PERKINS RD (WB),,,
38.604332,610,-121.513756,610,GATEWAY OAKS DR & GARDEN HWY (NB),,,
38.605955,611,-121.512799,611,GATEWAY OAKS DR & RIVER PLAZA DR (NB),,,
38.60826,612,-121.51346,612,GATEWAY OAKS DR & VENTURE OAKS WAY (NB),,,
38.608902,613,-121.51635,613,GATEWAY OAKS DR & OAK HARBOUR DR (NB),,,
38.612507,614,-121.516991,614,GATEWAY OAKS DR & W ELCAMINO AVE (NB),,,
38.613102,615,-121.507156,615,W ELCAMINO AVE & CAPITOL OAKS DR (EB),,,
38.612675,616,-121.504685,616,W ELCAMINO AVE & AZEVEDO DR (EB),,,
38.612591,617,-121.501244,617,W ELCAMINO AVE & MILLCREEK DR (WB),,,
38.612679,618,-121.497505,618,W ELCAMINO AVE & TRUXEL RD (EB),,,
38.612862,619,-121.492928,619,W ELCAMINO AVE & SEAMIST DR (EB),,,
38.612873,620,-121.489983,620,W ELCAMINO AVE & REINER WAY (EB),,,
38.61266,621,-121.48568,621,W ELCAMINO AVE & THELMA AVE (EB),,,
38.611942,622,-121.481316,622,W ELCAMINO AVE & NORBERT WAY (EB),,,
38.611561,623,-121.47905,623,W ELCAMINO AVE & NORTHVIEW DR (EB),,,
38.611229,624,-121.475174,624,W ELCAMINO AVE & NORTHGATE BLVD (EB),,,
38.611151,625,-121.470133,625,W ELCAMINO AVE & AMERICAN AVE (EB),,,
38.610882,626,-121.464363,626,EL CAMINO AVE & COLFAX ST (EB),,,
38.585225,628,-121.488707,628,E ST & 12TH ST (WB),,,
38.6687,629,-121.385772,629,JAMES WAY & SKVARLA AVE (WB),,,
38.637427,630,-121.382112,630,AUBURN BLVD & WATT AVE (EB),,,
38.63918,631,-121.377622,631,AUBURN BLVD & ANNADALE LN (EB),,,
38.640053,632,-121.375018,632,AUBURN BLVD & PASADENA AVE (EB),,,
38.641748,634,-121.369228,634,AUBURN BLVD & NORRIS AVE (EB),,,
38.644138,635,-121.364608,635,AUBURN BLVD & JONES RD (EB),,,
38.647685,636,-121.359921,636,ORANGE GROVE AVE & AUBURN BLVD (EB),,,
38.648691,637,-121.356252,637,ORANGE GROVE AVE & PASADENA AVE (EB),,,
38.649453,638,-121.35339,638,ORANGE GROVE AVE & SYCAMORE AVE (EB),,,
38.650808,639,-121.350339,639,COLLEGE OAK DR & ORANGE GROVE AVE (NB),,,
38.653889,640,-121.350327,640,COLLEGE OAK DR & MYRTLE AVE (NB),,,
38.656662,641,-121.350433,641,COLLEGE OAK DR & AUBURN BLVD (NB),,,
38.661224,642,-121.346298,642,AUBURN BLVD & MADISON AVE (EB),,,
38.663521,643,-121.343666,643,AUBURN BLVD & KOHLER RD (EB),,,
38.665749,644,-121.341034,644,AUBURN BLVD & HEMLOCK ST (EB),,,
38.66742,645,-121.338776,645,AUBURN BLVD & PALM AVE (EB),,,
38.668346,646,-121.336235,646,AUBURN BLVD & GARFIELD AVE (EB),,,
38.670586,647,-121.331749,647,AUBURN BLVD & GARFIELD AVE (EB),,,
38.673702,648,-121.32724,648,AUBURN BLVD & MANZANITA AVE (EB),,,
38.67623,649,-121.324217,649,AUBURN BLVD & SHADOW LN-1 (EB),,,
38.668545,650,-121.387097,650,JAMES WAY & DUDLEY BLVD (EB),,,
38.665074,651,-121.387057,651,DUDLEY AVE & PALM AVE (SB),,,
38.595185,658,-121.289349,658,ZINFANDEL DR & ZINFANDEL CROSSING (NB),,,
38.548214,659,-121.237891,659,CHRYSANTHY BLVD & ANATOLIA DR (EB),,,
38.648148,661,-121.447846,661,RIO LINDA BLVD & BELL AVE (SB),,,
38.569063,662,-121.279121,662,NORTH MATHER BLVD & SPOTO DR (EB),,,
38.569225,663,-121.279058,663,NORTH MATHER BLVD & SPOTO DR (WB),,,
38.578794,664,-121.277164,664,BAROQUE DR & CORVINA DR (EB),,,
38.649722,665,-121.350694,665,COLLEGE OAK DR & ORANGE GROVE AVE (SB),,,
38.58519,668,-121.494293,668,8TH ST & F ST (NB),,,
38.70641,669,-121.326506,669,ANTELOPE RD & DALY AVE (EB),,,
38.631661,674,-121.355431,674,MISSION AVE & ENGLE RD (SB),,,
38.628819,675,-121.355316,675,MISSION AVE & WHITNEY AVE (SB),,,
38.628464,676,-121.359802,676,WHITNEY AVE & CONCETTA WAY (WB),,,
38.628544,677,-121.365204,677,WHITNEY AVE & MULHOLLAND WY (WB),,,
38.628578,678,-121.369408,678,WHITNEY AVE & NORRIS AVE (WB),,,
38.628635,679,-121.374367,679,WHITNEY AVE & BECCERRA WAY (WB),,,
38.628693,680,-121.378632,680,WHITNEY AVE & MONTCLAIRE ST (WB),,,
38.628735,681,-121.380936,681,WHITNEY AVE & WATT AVE (WB),,,
38.647853,682,-121.447696,682,RIO LINDA BLVD & BELL AVE (NB),,,
38.655134,683,-121.447686,683,RIO LINDA BLVD & MAIN AVE (NB),,,
38.606837,684,-121.458964,684,GROVE AVE & EL MONTE AVE (NB),,,
38.61031,685,-121.459343,685,GROVE AVE & TRACTION AVE (NB),,,
38.61178,686,-121.4593,686,GROVE AVE & EL CAMINO AVE (NB),,,
38.615144,687,-121.45684,687,NORWOOD AVE & LAMPASAS AVE (NB),,,
38.617176,688,-121.456848,688,NORWOOD AVE & ELEANOR AVE (NB),,,
38.618926,689,-121.456837,689,NORWOOD AVE & LAS PALMAS AVE (NB),,,
38.621422,690,-121.456851,690,NORWOOD AVE & LINDLEY DR (NB),,,
38.629543,699,-121.474831,699,SILVER EAGLE RD & NORTHGATE BLVD (EB),,,
38.630142,700,-121.459068,700,SILVER EAGLE RD & NORWOOD AVE (EB),,,
38.630272,701,-121.459244,701,SILVER EAGLE RD & NORWOOD AVE (WB),,,
38.630283,702,-121.46257,702,SILVER EAGLE RD & MABEL ST (WB),,,
38.630177,703,-121.462631,703,SILVER EAGLE RD & MABEL ST (EB),,,
38.629704,704,-121.474281,704,SILVER EAGLE RD & NORTHGATE BLVD (WB),,,
38.631096,706,-121.456828,706,NORWOOD AVE & HAYES AVE (NB),,,
38.634026,707,-121.456863,707,NORWOOD AVE & KESNER AVE (NB),,,
38.636041,708,-121.456817,708,NORWOOD AVE & LINDSAY AVE (NB),,,
38.637946,709,-121.456805,709,NORWOOD AVE & MORRISON AVE (NB),,,
38.64437,710,-121.4568,710,NORWOOD AVE & JESSIE AVE (NB),,,
38.658261,716,-121.447662,716,RIO LINDA BLVD & HUNTERS CREEK DR (NB),,,
38.660337,717,-121.447672,717,RIO LINDA BLVD & PINEDALE AVE (NB),,,
38.684071,731,-121.457695,731,ELKHORN BLVD & RIO LINDA BLVD (WB),,,
38.684334,732,-121.461464,732,2ND ST & JUBILEE WAY (NB),,,
38.686653,733,-121.461472,733,2ND ST & WITHINGTON AVE (NB),,,
38.688118,734,-121.461429,734,2ND ST & DOLPHIN WY (NB),,,
38.690963,735,-121.461444,735,2ND ST & M ST (NB),,,
38.691109,736,-121.45639,736,M ST & RIO LINDA (EB),,,
38.691101,737,-121.454231,737,M ST & 5TH ST (EB),,,
38.691078,738,-121.452095,738,M ST & 6TH ST (EB),,,
38.691055,739,-121.449516,739,M ST & FRONT ST (EB),,,
38.691025,740,-121.447456,740,M ST & 8TH ST (EB),,,
38.691426,741,-121.44492,741,OAK LANE & 9TH ST (NB),,,
38.694383,753,-121.29131,753,AUBURN BLVD & AUBURN BLVD (WB),,,
38.691792,780,-121.444634,780,OAK LANE & 9TH ST (SB),,,
38.691147,781,-121.44735,781,M ST & 8TH ST (WB),,,
38.691181,782,-121.449616,782,M ST & FRONT ST (WB),,,
38.691223,783,-121.452072,783,M ST & 6TH ST (WB),,,
38.691258,784,-121.454186,784,M ST & 5TH ST (WB),,,
38.691296,785,-121.4562,785,M ST & RIO LINDA (WB),,,
38.691074,786,-121.461601,786,2ND ST & M ST (SB),,,
38.688625,787,-121.461655,787,2ND ST & DOLPHIN WY (SB),,,
38.686115,788,-121.461655,788,2ND ST & WITHINGTON AVE (SB),,,
38.684422,789,-121.461617,789,2ND ST & MONTICELLO AVE (SB),,,
38.551788,790,-121.397499,790,LAKE FOREST DR & LAKE FOREST DR (WB),,,
38.578782,795,-121.281346,795,ZINFANDEL DR & BEAR HOLLOW DR (SB),,,
38.660122,804,-121.447815,804,RIO LINDA BLVD & PINEDALE AVE (SB),,,
38.65897,805,-121.447823,805,RIO LINDA BLVD & SANTA ANA AVE (SB),,,
38.656117,806,-121.44783,806,RIO LINDA BLVD & MAIN AVE (SB),,,
38.647492,810,-121.457039,810,NORWOOD AVE & BELL AVE (SB),,,
38.64436,811,-121.457008,811,NORWOOD AVE & JESSIE AVE (SB),,,
38.638386,812,-121.457031,812,NORWOOD AVE & HARRIS AVE (SB),,,
38.635948,813,-121.457001,813,NORWOOD AVE & LINDSAY AVE (SB),,,
38.63345,814,-121.456993,814,NORWOOD AVE & SOUTH AVE (SB),,,
38.630951,815,-121.457001,815,NORWOOD AVE & SILVER EAGLE RD (SB),,,
38.621761,824,-121.4571,824,NORWOOD AVE & LINDLEY DR (SB),,,
38.619541,825,-121.457085,825,NORWOOD AVE & LAS PALMAS AVE (SB),,,
38.616631,826,-121.457069,826,NORWOOD AVE & ELEANOR AVE (SB),,,
38.614822,827,-121.457085,827,NORWOOD AVE & LAMPASAS AVE (SB),,,
38.610272,829,-121.459473,829,GROVE AVE & TRACTION AVE (SB),,,
38.587193,832,-121.286823,832,ZINFANDEL DR & WHITE ROCK RD (SB),,,
38.636715,834,-121.452316,834,GRAND AVE & TAYLOR ST (EB),,,
38.636665,835,-121.447502,835,GRAND AVE & ALTOS AVE (EB),,,
38.636604,836,-121.445427,836,GRAND AVE & CYPRESS ST (EB),,,
38.584503,837,-121.285589,837,ZINFANDEL DR & CAPITAL VILLAGE LN (NB),,,
38.636593,838,-121.441544,838,GRAND AVE & BELDEN ST (EB),,,
38.636551,839,-121.437767,839,GRAND AVE & DRY CREEK RD (EB),,,
38.636509,840,-121.432671,840,GRAND AVE & ELM ST (EB),,,
38.636444,841,-121.429558,841,GRAND AVE & MARYSVILLE BLVD (EB),,,
38.636381,842,-121.426885,842,GRAND AVE & JASMINE ST (EB),,,
38.636347,843,-121.423927,843,GRAND AVE & MAHOGANY ST (EB),,,
38.587526,844,-121.275415,844,PROSPECT PARK DR & DISK DR (NB),,,
38.636389,845,-121.418275,845,GRAND AVE & DAYTON ST (EB),,,
38.636389,846,-121.41672,846,GRAND AVE & ASTORIA ST (EB),,,
38.636377,847,-121.413614,847,GRAND AVE & RIPLEY ST (EB),,,
38.636768,848,-121.411377,848,WINTERS ST & GRAND AVE (NB),,,
38.636555,849,-121.430214,849,GRAND AVE & MARYSVILLE BLVD (WB),,,
38.636574,850,-121.432633,850,GRAND AVE & ELM ST (WB),,,
38.636654,851,-121.43985,851,GRAND AVE & CLAY ST (WB),,,
38.636673,852,-121.441971,852,GRAND AVE & BELDEN ST (WB),,,
38.636704,853,-121.444412,853,GRAND AVE & BRANCH ST (WB),,,
38.63673,854,-121.447006,854,GRAND AVE & ROSE ST (WB),,,
38.636749,855,-121.448761,855,GRAND AVE & ALTOS AVE (WB),,,
38.636791,856,-121.45285,856,GRAND AVE & TAYLOR ST (WB),,,
38.636395,859,-121.446198,859,RIO LINDA BLVD & GRAND AVE (SB),,,
38.632916,860,-121.446205,860,RIO LINDA BLVD & SOUTH AVE (SB),,,
38.630707,861,-121.44622,861,RIO LINDA BLVD & SILVANO ST (SB),,,
38.629032,862,-121.446266,862,RIO LINDA BLVD & FORD RD (SB),,,
38.624565,863,-121.446289,863,RIO LINDA BLVD & ARCADE BLVD (SB),,,
38.622498,864,-121.446297,864,RIO LINDA BLVD & ACACIA AVE (SB),,,
38.620266,865,-121.446289,865,RIO LINDA BLVD & ALAMOS AVE (SB),,,
38.616291,866,-121.446304,866,RIO LINDA BLVD & ELEANOR AVE (SB),,,
38.614586,867,-121.44606,867,LAMPASAS AVE & RIO LINDA BLVD (SB),,,
38.57459,868,-121.275759,868,ZINFANDEL DR & TINTA FINA DR (NB),,,
38.581199,869,-121.274721,869,PROSPECT PARK & BAROQUE DR  (SB),,,
38.573476,870,-121.27475,870,ZINFANDEL DR & SOLERA DR (SB),,,
38.707593,875,-121.29689,875,ANTELOPE RD & LAUPPE LN (WB),,,
38.602185,876,-121.270598,876,TRADE CENTER DR & QUARRY CT (WB),,,
38.500327,877,-121.549827,877,RIVERSIDE BLVD & CLAIBORNE WAY (WB),,,
38.561913,880,-121.471077,880,T ST & 30TH ST (EB),,,
38.561405,881,-121.470001,881,T ST & ALHAMBRA BLVD (EB),,,
38.560368,883,-121.46624,883,T ST & 34TH ST (EB),,,
38.559727,884,-121.463417,884,T ST & 36TH ST (EB),,,
38.454113,885,-121.418659,885,COSUMNES LIGHT RAIL STATION & Bus Bay 4 (NB),,,
38.55845,886,-121.458594,886,T ST & 39TH ST (EB),,,
38.453777,887,-121.41849,887,COSUMNES LIGHT RAIL STATION & Bus Bay 3 (NB),,,
38.55749,888,-121.455445,888,T ST & 42ND ST (EB),,,
38.556742,890,-121.452425,890,T ST & 45TH ST (EB),,,
38.55586,891,-121.449287,891,T ST & 48TH ST (EB),,,
38.554192,894,-121.443147,894,T ST & 53RD ST (EB),,,
38.553618,895,-121.440683,895,T ST & 55TH ST (EB),,,
38.553528,896,-121.438955,896,T ST & 57TH ST (EB),,,
38.552417,897,-121.43663,897,59TH ST & T ST (SB),,,
38.550053,898,-121.43661,898,59TH ST & 2ND AVE (SB),,,
38.548588,899,-121.43657,899,59TH ST & TAHOE WAY (SB),,,
38.547317,900,-121.43657,900,59TH ST & BROADWAY (SB),,,
38.546663,901,-121.441562,901,BROADWAY & 55TH ST (EB),,,
38.546699,902,-121.438952,902,BROADWAY & 57TH ST (EB),,,
38.546719,903,-121.435188,903,BROADWAY & 60TH ST (EB),,,
38.546757,904,-121.433342,904,BROADWAY & 62ND ST (EB),,,
38.546814,905,-121.430359,905,BROADWAY & 64TH ST (EB),,,
38.453233,906,-121.41849,906,COSUMNES LIGHT RAIL STATION & Bus Bay 1 (NB),,,
38.539612,909,-121.430557,909,14TH AVE & 64TH ST (WB),,,
38.539593,910,-121.433189,910,14TH AVE & 62ND ST (WB),,,
38.539581,911,-121.434898,911,14TH AVE & 60TH ST (WB),,,
38.539555,912,-121.438355,912,14TH AVE & 58TH ST (WB),,,
38.539513,913,-121.442101,913,14TH AVE & 55TH ST (WB),,,
38.539669,914,-121.443924,914,53RD ST & 14TH AVE (NB),,,
38.541363,915,-121.443939,915,53RD ST & 12TH AVE (NB),,,
38.542382,916,-121.443962,916,53RD ST & 11TH AVE (NB),,,
38.543209,917,-121.443947,917,53RD ST & 9TH AVE (NB),,,
38.54492,918,-121.444041,918,53RD ST & 7TH AVE (SB),,,
38.54655,919,-121.443925,919,53RD ST & BROADWAY (NB),,,
38.54719,922,-121.436432,922,59TH ST & BROADWAY (NB),,,
38.548823,923,-121.436472,923,59TH ST & TAHOE WAY (NB),,,
38.550015,924,-121.436472,924,59TH ST & 2ND AVE (NB),,,
38.552187,925,-121.436528,925,59TH ST & U ST (NB),,,
38.553665,927,-121.439095,927,T ST & 57TH ST (WB),,,
38.553722,928,-121.440636,928,T ST & 55TH ST (WB),,,
38.554456,929,-121.44345,929,T ST & 53RD ST (WB),,,
38.554949,930,-121.445009,930,T ST & 51ST ST (WB),,,
38.555276,931,-121.446192,931,T ST & 50TH ST (WB),,,
38.556069,932,-121.449646,932,T ST & 48TH ST (WB),,,
38.556866,933,-121.452454,933,T ST & 45TH ST (WB),,,
38.55753,934,-121.454453,934,T ST & 43RD ST (WB),,,
38.557896,935,-121.455795,935,T ST & 42ND ST (WB),,,
38.559834,938,-121.46344,938,T ST & 36TH ST (WB),,,
38.560648,940,-121.466732,940,T ST & 34TH ST (WB),,,
38.56113,941,-121.468567,941,T ST & 32ND ST (WB),,,
38.556634,948,-121.207674,948,BORDERLANDS DRIVE & CANYONLANDS DRIVE (NB),,,
38.525653,949,-121.232743,949,Kiefer & Country Garden (WB),,,
38.599088,950,-121.273348,950,KILGORE RD & TRADE CENTER DR (SB),,,
38.59825,951,-121.271612,951,KILGORE RD & TRADE CENTER DR (NB),,,
38.589477,952,-121.270748,952,KILGORE RD & WHITE ROCK RD (SB),,,
38.590373,953,-121.27051,953,KILGORE RD & WHITE ROCK RD (NB),,,
38.584212,954,-121.269474,954,INTERNATIONAL DR & KILGORE RD (EB),,,
38.58483,955,-121.270266,955,KILGORE RD & INTERNATIONAL DR (NB),,,
38.583807,956,-121.265305,956,SUNRISE BLVD & INTERNATIONAL DR (SB),,,
38.584522,957,-121.262244,957,MONIER CIRCLE & SUNRISE BLVD (WB),,,
38.54541,959,-121.234861,959,APPOLON DR & STECCATO DR  (EB),,,
38.614071,960,-121.44532,960,LAMPASAS AVE & DEL PASO BLVD (WB),,,
38.614903,961,-121.446144,961,RIO LINDA BLVD & LAMPASAS AVE (NB),,,
38.616715,962,-121.446152,962,RIO LINDA BLVD & ELEANOR AVE (NB),,,
38.619961,963,-121.446137,963,RIO LINDA BLVD & ALAMOS AVE (NB),,,
38.622284,964,-121.446114,964,RIO LINDA BLVD & ACACIA AVE (NB),,,
38.624432,965,-121.446121,965,RIO LINDA BLVD & ARCADE BLVD (NB),,,
38.62912,966,-121.446106,966,RIO LINDA BLVD & CARMELITA ST (NB),,,
38.631279,967,-121.44606,967,RIO LINDA BLVD & SILVANO ST (NB),,,
38.633259,968,-121.446068,968,RIO LINDA BLVD & SOUTH AVE (NB),,,
38.635468,969,-121.44606,969,RIO LINDA BLVD & ROANOKE AVE (NB),,,
38.545068,970,-121.224337,970,RANCHO CORDOVA PKWY & PERICLES DR (SB),,,
38.570484,971,-121.490118,971,15TH ST & Q ST (SB),,,
38.532296,972,-121.224286,972,RANCHO CORDOVA PKWY & COUNTRY GARDEN DR (SB),,,
38.56838,973,-121.491073,973,15TH ST & S ST (SB),,,
38.567252,974,-121.491502,974,15TH ST & T ST (SB),,,
38.565046,975,-121.492492,975,15TH ST & V ST (SB),,,
38.561432,976,-121.492977,976,LAND PARK DR & BROADWAY (SB),,,
38.559607,977,-121.495023,977,LAND PARK DR & LARKIN WAY (SB),,,
38.557967,978,-121.495758,978,LAND PARK DR & 2ND AVE (SB),,,
38.556173,979,-121.496473,979,LAND PARK DR & MARKHAM WAY (SB),,,
38.55431,980,-121.496413,980,LAND PARK DR & 3RD AVE (SB),,,
38.552655,981,-121.497467,981,LAND PARK DR & VALLEJO WAY (SB),,,
38.551425,982,-121.49854,982,LAND PARK DR & MARIAN WAY (SB),,,
38.549797,983,-121.499057,983,LAND PARK DR & PERKINS WAY (SB),,,
38.548048,984,-121.499612,984,LAND PARK DR & 8TH AVE (SB),,,
38.546688,985,-121.50001,985,LAND PARK DR & TENEIGHT WAY (SB),,,
38.544512,986,-121.500685,986,LAND PARK DR & 13TH AVE (SB),,,
38.539218,987,-121.502413,987,LAND PARK DR & 15TH AVE (SB),,,
38.537938,988,-121.503288,988,LAND PARK DR & SUTTERVILLE RD (SB),,,
38.5372,989,-121.504957,989,SLP DR & PARKSIDE CT (SB),,,
38.535848,990,-121.50756,990,SLP DR & VOLZ DR (SB),,,
38.53209,992,-121.50744,992,SLP DR & RIDGEWAY DR (SB),,,
38.530365,993,-121.508672,993,SLP DR & PLEASANT DR (SB),,,
38.52969,994,-121.511792,994,SLP DR & RIDGEWAY DR (SB),,,
38.52632,995,-121.511057,995,SLP DR & NOONAN DR (SB),,,
38.539311,996,-121.23974,996,JUSTINIAN DR & ANATOLIA DR (EB),,,
38.523727,997,-121.511513,997,SLP DR & FRUITRIDGE RD (SB),,,
38.520742,998,-121.512308,998,SLP DR & 35TH AVE (SB),,,
38.518208,999,-121.513199,999,SLP DR & 41ST AVE (SB),,,
38.515701,1000,-121.514778,1000,SLP DR & 43RD AVE (SB),,,
38.513393,1001,-121.51548,1001,SLP DR & 43RD AVE (SB),,,
38.510285,1002,-121.515625,1002,SLP DR & 47TH AVE (SB),,,
38.508082,1003,-121.51501,1003,SLP DR & SILVER LAKE DR (SB),,,
38.55722,1004,-121.239525,1004,ANATOLIA DR & HERODIAN DR (NB),,,
38.505657,1005,-121.513634,1005,13TH ST & FAY CIR (SB),,,
38.504677,1006,-121.515678,1006,13TH ST & FAY CIR (SB),,,
38.503059,1007,-121.516525,1007,13TH ST & SAN CLEMENTE WAY (NB),,,
38.501419,1008,-121.518089,1008,56TH AVE & HAVENHURST DR (WB),,,
38.502339,1009,-121.518772,1009,HAVENHURST DR & FLINTWOOD WAY (NB),,,
38.504456,1010,-121.520996,1010,HAVENHURST DR & GREENHAVEN DR (WB),,,
38.502735,1011,-121.522163,1011,GREENHAVEN DR & GREENWAY CIR (SB),,,
38.499268,1012,-121.523644,1012,GREENHAVEN DR & GREENSTAR WAY (SB),,,
38.497456,1013,-121.523254,1013,GREENHAVEN DR & PARK RANCH WAY (SB),,,
38.495548,1014,-121.523918,1014,GREENHAVEN DR & FLORIN RD (SB),,,
38.557158,1015,-121.239691,1015,ANATOLIA DR & HERODIAN DR (SB),,,
38.491509,1016,-121.521614,1016,GREENHAVEN DR & WINDBRIDGE DR (SB),,,
38.490265,1017,-121.518112,1017,GREENHAVEN DR & LA FLEUR WAY (SB),,,
38.55708,1018,-121.217436,1018,TIMBERLAND DR & CANYONLANDS DR (SB),,,
38.494464,1020,-121.537351,1020,SWALE RIVER WAY & GLORIA DRIVE (NB),,,
38.504372,1022,-121.520905,1022,HAVENHURST DR & GREENHAVEN DR (EB),,,
38.502701,1023,-121.519112,1023,HAVENHURST DR & WESTMORELAND WAY (SB),,,
38.501264,1024,-121.518373,1024,56TH AVE & HAVENHURST DR (EB),,,
38.501734,1025,-121.516085,1025,13TH ST & 56TH AVE (NB),,,
38.503126,1026,-121.516358,1026,13TH ST & SAN CLEMENTE WAY (NB),,,
38.504337,1027,-121.515757,1027,13TH ST & GAGLE WAY (NB),,,
38.505628,1028,-121.513255,1028,13TH ST & TUGGLE WAY (EB),,,
38.50732,1029,-121.511863,1029,SLP DR & 13TH ST (WB),,,
38.508604,1030,-121.515149,1030,SLP DR & SILVER LAKE DR (NB),,,
38.510579,1031,-121.515481,1031,SLP DR & 47TH AVE (NB),,,
38.513214,1032,-121.51545,1032,SLP DR & 47TH AVE (NB),,,
38.515595,1033,-121.514633,1033,SLP DR & 43RD AVE (NB),,,
38.518425,1034,-121.512962,1034,SLP DR & 40TH AVE (NB),,,
38.521396,1035,-121.512222,1035,SLP DR & 35TH AVE (NB),,,
38.525129,1036,-121.510948,1036,SLP DR & NEVIS CT (NB),,,
38.526484,1037,-121.510991,1037,SLP DR & PLEASANT DR (NB),,,
38.460013,1038,-121.41492,1038,TIMBERLAKE WY & BRUCEVILLE RD (WB),,,
38.529381,1039,-121.51194,1039,SLP DR & CRESTWOOD WAY (SB),,,
38.53009,1040,-121.509049,1040,SLP DR & PLEASANT DR (EB),,,
38.531965,1041,-121.507365,1041,SLP DR & RIDGEWAY DR (NB),,,
38.534393,1042,-121.507456,1042,SLP DR & CRESTWOOD WAY (NB),,,
38.535587,1043,-121.507561,1043,SLP DR & VOLZ DR (NB),,,
38.537026,1044,-121.504959,1044,SLP DR & PARKSIDE CT (NB),,,
38.537682,1045,-121.503449,1045,LAND PARK DR & SUTTERVILLE RD (NB),,,
38.539429,1046,-121.502327,1046,LAND PARK DR & 16TH AVE (NB),,,
38.544368,1047,-121.500608,1047,LAND PARK DR & 13TH AVE (NB),,,
38.545887,1048,-121.500126,1048,LAND PARK DR & 11TH AVE (NB),,,
38.546999,1049,-121.499726,1049,LAND PARK DR & 9TH AVE (NB),,,
38.548384,1050,-121.499283,1050,LAND PARK DR & 7TH AVE (NB),,,
38.550302,1051,-121.49865,1051,LAND PARK DR & CORDANO WAY (NB),,,
38.552554,1052,-121.497309,1052,LAND PARK DR & VALLEJO WAY (NB),,,
38.554087,1053,-121.496287,1053,LAND PARK DR & 3RD AVE (NB),,,
38.556598,1054,-121.496137,1054,LAND PARK DR & CARAMAY WAY (NB),,,
38.557917,1055,-121.495577,1055,LAND PARK DR & 2ND AVE (NB),,,
38.559576,1056,-121.494863,1056,LAND PARK DR & LARKIN WAY (NB),,,
38.722684,1057,-121.289608,1057,LOUIS LANE & ORLANDO AVE (NB),,,
38.561264,1058,-121.493079,1058,LAND PARK DR & BROADWAY (NB),,,
38.561996,1059,-121.492095,1059,16TH ST & BROADWAY (NB),,,
38.565126,1060,-121.490759,1060,16TH ST & V ST (NB),,,
38.567317,1061,-121.489783,1061,16TH ST & T ST (NB),,,
38.568401,1062,-121.489314,1062,16TH ST & S ST (NB),,,
38.569978,1063,-121.488638,1063,16TH ST & R ST (NB),,,
38.582081,1065,-121.491051,1065,H ST & 11TH ST (EB),,,
38.580898,1066,-121.486542,1066,H ST & 14TH ST (EB),,,
38.580591,1067,-121.484067,1067,16TH ST & H ST (NB),,,
38.583862,1068,-121.482611,1068,16TH ST & E ST (NB),,,
38.722499,1069,-121.289608,1069,LOUIS LANE & ORLANDO AVE (NB),,,
38.722353,1070,-121.289608,1070,LOUIS LANE & ORLANDO AVE (NB),,,
38.610039,1071,-121.37957,1071,BUTANO DR & EL CAMINO AVE (SB),,,
38.606766,1073,-121.381783,1073,BUTANO DR & WATT AVE (WB),,,
38.60688,1074,-121.384369,1074,BUTANO DR & PARK TOWNE CIR (WB),,,
38.605908,1075,-121.387138,1075,BUTANO DR & COTTAGE WAY (SB),,,
38.603935,1076,-121.387146,1076,BUTANO DR & COTTAGE WAY (SB),,,
38.603352,1077,-121.389412,1077,COTTAGE WAY & KINCAID WAY (WB),,,
38.595889,1086,-121.434154,1086,HERITAGE LN & EXPOSITION BLVD (NB),,,
38.59689,1087,-121.42936,1087,RESPONSE RD & CHALLENGE WAY (EB),,,
38.597759,1088,-121.431519,1088,HERITAGE LN & RESPONSE RD (NB),,,
38.599013,1090,-121.419785,1090,ETHAN WAY & ALTA ARDEN (NB),,,
38.602261,1091,-121.419937,1091,ETHAN WAY & COTTAGE WAY (NB),,,
38.605904,1092,-121.419945,1092,ETHAN WAY & KEITH WAY (NB),,,
38.608657,1093,-121.41982,1093,ETHAN WAY & DELMA WAY (NB),,,
38.610809,1094,-121.419308,1094,EL CAMINO AVE & ETHAN WAY (EB),,,
38.606316,1096,-121.448021,1096,ARDEN WAY & ROYAL OAKS DR (EB),,,
38.604729,1098,-121.437546,1098,ARDEN WAY & BLUMENFELD DR (EB),,,
38.59993,1099,-121.426293,1099,ARDEN FAIR MALL & TERMINAL (NB),,,
38.597153,1100,-121.42263,1100,ARDEN WAY & CHALLENGE WAY (EB),,,
38.596058,1101,-121.418945,1101,ARDEN WAY & ETHAN WAY (EB),,,
38.595997,1102,-121.41481,1102,ARDEN WAY & HOWE AVE (EB),,,
38.596001,1103,-121.410217,1103,ARDEN WAY & BELL ST (EB),,,
38.595963,1104,-121.405861,1104,ARDEN WAY & CLINTON RD (EB),,,
38.595905,1105,-121.401085,1105,ARDEN WAY & FULTON AVE (EB),,,
38.595856,1106,-121.394714,1106,ARDEN WAY & BERKSHIRE WAY (EB),,,
38.595821,1107,-121.390823,1107,ARDEN WAY & MORSE AVE (EB),,,
38.595757,1108,-121.38652,1108,ARDEN WAY & PROFESSIONAL DR (EB),,,
38.595654,1109,-121.382324,1109,ARDEN WAY & WATT AVE (EB),,,
38.595642,1110,-121.37825,1110,ARDEN WAY & LA PLAYA WAY (EB),,,
38.595604,1111,-121.373009,1111,ARDEN WAY & LA SIERRA DR (EB),,,
38.595535,1112,-121.367936,1112,ARDEN WAY & ESPERANZA DR (EB),,,
38.595474,1113,-121.3637,1113,ARDEN WAY & EASTERN AVE (EB),,,
38.595411,1114,-121.357861,1114,ARDEN WAY & SURITA ST (EB),,,
38.595413,1115,-121.355064,1115,ARDEN WAY & MISSION AVE (EB),,,
38.595329,1116,-121.349159,1116,ARDEN WAY & PALOMA AVE (EB),,,
38.603245,1127,-121.391983,1127,COTTAGE WAY & MORSE AVE (EB),,,
38.603233,1128,-121.389305,1128,COTTAGE WAY & KINCAID WAY (EB),,,
38.60396,1129,-121.386972,1129,BUTANO DR & COTTAGE WAY (NB),,,
38.605975,1130,-121.386969,1130,BUTANO DR & COTTAGE WAY (NB),,,
38.606735,1131,-121.384442,1131,BUTANO DR & PARK TOWNE CIR (EB),,,
38.584873,1134,-121.48867,1134,12TH ST & E ST (SB),,,
38.582272,1135,-121.489784,1135,12TH ST & H ST (SB),,,
38.580883,1136,-121.490921,1136,I ST & 12TH ST (WB),,,
38.612579,1139,-121.328964,1139,FAIR OAKS BLVD & TOPP CT (SB),,,
38.609482,1141,-121.329025,1141,FAIR OAKS BLVD & EL CAMINO AVE (SB),,,
38.607819,1142,-121.329056,1142,FAIR OAKS BLVD & FRONTIER WAY (SB),,,
38.605908,1143,-121.33374,1143,FAIR OAKS BLVD & SHELFIELD DR (SB),,,
38.604477,1144,-121.336556,1144,FAIR OAKS BLVD & GARFIELD AVE (SB),,,
38.598354,1146,-121.343361,1146,FAIR OAKS BLVD & WESTMINSTER CT (SB),,,
38.59552,1147,-121.346405,1147,ARDEN WAY & FAIR OAKS BLVD (WB),,,
38.595512,1148,-121.350296,1148,ARDEN WAY & PARK PLACE DR (WB),,,
38.595554,1149,-121.355263,1149,ARDEN WAY & MISSION AVE (WB),,,
38.5956,1150,-121.358627,1150,ARDEN WAY & PLUTO WAY (WB),,,
38.59573,1151,-121.365723,1151,ARDEN WAY & EASTERN AVE (WB),,,
38.595703,1152,-121.368012,1152,ARDEN WAY & CATHAY WAY (WB),,,
38.595783,1153,-121.372917,1153,ARDEN WAY & MAPLE GLEN RD (WB),,,
38.595856,1154,-121.379021,1154,ARDEN WAY & LA PLAYA WAY (WB),,,
38.595844,1155,-121.383759,1155,ARDEN WAY & WATT AVE (WB),,,
38.59589,1156,-121.387581,1156,ARDEN WAY & PROFESSIONAL DR (WB),,,
38.59605,1157,-121.392906,1157,ARDEN WAY & MORSE AVE (WB),,,
38.596047,1158,-121.395294,1158,ARDEN WAY & AVONDALE AVE (WB),,,
38.596161,1159,-121.401871,1159,ARDEN WAY & FULTON AVE (WB),,,
38.596153,1160,-121.405823,1160,ARDEN WAY & WRIGHT ST (WB),,,
38.596214,1161,-121.411575,1161,ARDEN WAY & BELL ST (WB),,,
38.596287,1162,-121.416046,1162,ARDEN WAY & HOWE AVE (WB),,,
38.597786,1163,-121.423042,1163,ARDEN WAY & CHALLENGE WAY (WB),,,
38.599857,1164,-121.427216,1164,ARDEN WAY & HERITAGE LN (WB),,,
38.605465,1165,-121.438553,1165,ARDEN WAY & HARVARD ST (WB),,,
38.606491,1166,-121.446335,1166,ARDEN WAY & BOXWOOD ST (WB),,,
38.60651,1167,-121.449066,1167,ARDEN WAY & BEAUMONT ST (WB),,,
38.606487,1168,-121.451775,1168,ARDEN WAY & CANTALIER ST (WB),,,
38.595848,1175,-121.345345,1175,FAIR OAKS BLVD & ARDEN WAY (NB),,,
38.59816,1176,-121.343224,1176,FAIR OAKS BLVD & MARIONE DR (NB),,,
38.602829,1177,-121.338257,1177,FAIR OAKS BLVD & AINSLEY CT (NB),,,
38.604179,1178,-121.33654,1178,FAIR OAKS BLVD & GARFIELD AVE (NB),,,
38.605671,1180,-121.331856,1180,FAIR OAKS BLVD & CLAREMONT RD (NB),,,
38.609947,1181,-121.328728,1181,FAIR OAKS BLVD & VAN ALSTINE AVE (NB),,,
38.61396,1182,-121.328636,1182,FAIR OAKS BLVD & KENNETH AVE (NB),,,
38.607319,1183,-121.328835,1183,FAIR OAKS BLVD & FRONTIER WAY (NB),,,
38.679128,1184,-121.267253,1184,ARCADIA DR & GREENBACK LN (SB),,,
38.678566,1187,-121.272461,1187,GREENBACK LN & SUNRISE BLVD (WB),,,
38.678463,1188,-121.277542,1188,GREENBACK LN & MERLINDALE DR (WB),,,
38.678398,1189,-121.281952,1189,GREENBACK LN & BURICH AVE (WB),,,
38.678376,1190,-121.286893,1190,GREENBACK LN & MARIPOSA AVE (WB),,,
38.678391,1191,-121.289917,1191,GREENBACK LN & SYLVAN RD (WB),,,
38.678425,1192,-121.293266,1192,GREENBACK LN & SAN JUAN AVE (WB),,,
38.67836,1193,-121.297165,1193,GREENBACK LN & FOUNTAIN SQUARE DR (WB),,,
38.678326,1195,-121.304047,1195,GREENBACK LN & BINET DR (WB),,,
38.678227,1196,-121.31118,1196,GREENBACK LN & VAN MAREN LN (WB),,,
38.678234,1197,-121.314842,1197,GREENBACK LN & LONGFORD DR (WB),,,
38.67823,1198,-121.316994,1198,GREENBACK LN & BREMEN DR (WB),,,
38.676251,1200,-121.271721,1200,SUNRISE BLVD MALL & BIRDCAGE ST (SB),,,
38.673592,1201,-121.271729,1201,SUNRISE BLVD MALL & BIRDCAGE ST (SB),,,
38.671314,1202,-121.271698,1202,SUNRISE BLVD & MACY PL DR (SB),,,
38.66914,1203,-121.272019,1203,SUNRISE BLVD & KINGSWOOD DR (SB),,,
38.666348,1204,-121.272339,1204,SUNRISE BLVD & UPLANDS WAY (SB),,,
38.663284,1205,-121.272316,1205,SUNRISE BLVD & MADISON AVE (SB),,,
38.660091,1206,-121.2724,1206,SUNRISE BLVD & WILDRIDGE DR (SB),,,
38.652245,1207,-121.27272,1207,SUNRISE BLVD & SUNSET AVE (SB),,,
38.56578,1209,-121.50264,1209,8TH ST & X ST (NB),,,
38.649633,1210,-121.3085,1210,DEWEY DR & WINDING WAY (SB),,,
38.68377,1212,-121.457283,1212,ELKHORN BLVD & RIO LINDA BLVD (EB),,,
38.663217,1215,-121.308698,1215,DEWEY DR & MADISON AVE (SB),,,
38.65803,1216,-121.3084,1216,DEWEY DR & OAKCREST AVE (SB),,,
38.654163,1217,-121.3084,1217,DEWEY DR & WILL ROGERS DR (SB),,,
38.651462,1218,-121.3085,1218,DEWEY DR & MORAGA DR (SB),,,
38.649135,1220,-121.313647,1220,WINDING WY & BARRETT RD (WB),,,
38.648605,1222,-121.318184,1222,JAN DR & WINDING WY (SB),,,
38.645847,1223,-121.318512,1223,JAN DR & RAMPART DR (SB),,,
38.64299,1224,-121.319458,1224,JAN DR & OTIS CT (SB),,,
38.640541,1225,-121.321037,1225,CALIFORNIA AVE & LINCOLN AVE (SB),,,
38.636204,1226,-121.32119,1226,CALIFORNIA AVE & FAIR OAKS BLVD (SB),,,
38.634522,1227,-121.321228,1227,CALIFORNIA AVE & CASITA AVE (SB),,,
38.633335,1228,-121.321251,1228,CALIFORNIA AVE & SUTTER AVE (SB),,,
38.629707,1229,-121.321373,1229,CALIFORNIA AVE & GRANT AVE (SB),,,
38.626148,1230,-121.321472,1230,CALIFORNIA AVE & LANDIS AVE (SB),,,
38.622501,1231,-121.321564,1231,CALIFORNIA AVE & STANLEY AVE (SB),,,
38.620216,1232,-121.321648,1232,CALIFORNIA AVE & HOMESWEET WAY (SB),,,
38.617069,1233,-121.321732,1233,CALIFORNIA AVE & PALM DR (SB),,,
38.617058,1234,-121.326698,1234,PALM DR & PANAMA AVE (WB),,,
38.617294,1236,-121.334007,1236,MARCONI AVE & LA VISTA AVE (WB),,,
38.6173,1237,-121.33709,1237,MARCONI AVE & GARFIELD AVE (WB),,,
38.617345,1238,-121.339713,1238,MARCONI AVE & LINDEN LN (WB),,,
38.617554,1239,-121.346687,1239,MARCONI AVE & WALNUT AVE (WB),,,
38.617561,1240,-121.351029,1240,MARCONI AVE & ROOT AVE (WB),,,
38.617592,1241,-121.355599,1241,MARCONI AVE & MISSION AVE (WB),,,
38.617653,1242,-121.359703,1242,MARCONI AVE & GREENWOOD AVE (WB),,,
38.617695,1243,-121.365524,1243,MARCONI AVE & EASTERN AVE (WB),,,
38.617737,1244,-121.369652,1244,MARCONI AVE & NORRIS AVE (WB),,,
38.617783,1245,-121.37423,1245,MARCONI AVE & BECCERRA WAY (WB),,,
38.617828,1246,-121.377815,1246,MARCONI AVE & MONTCLAIRE ST (WB),,,
38.617901,1247,-121.383728,1247,MARCONI AVE & WATT AVE (WB),,,
38.617924,1248,-121.388031,1248,MARCONI AVE & ASHBOURNE DR (WB),,,
38.617966,1249,-121.394119,1249,MARCONI AVE & LACY LN (WB),,,
38.618004,1250,-121.397553,1250,MARCONI AVE & CALDERWOOD LN (WB),,,
38.618076,1251,-121.402306,1251,MARCONI AVE & FULTON AVE (WB),,,
38.618084,1252,-121.405724,1252,MARCONI AVE & WRIGHT ST (WB),,,
38.618145,1253,-121.411232,1253,MARCONI AVE & BELL ST (WB),,,
38.618515,1254,-121.415962,1254,MARCONI AVE & HOWE AVE (WB),,,
38.620624,1255,-121.421104,1255,MARCONI AVE & CONNIE DR (EB),,,
38.620564,1262,-121.4207,1262,MARCONI AVE & CONNIE DR (WB),,,
38.618717,1263,-121.41687,1263,MARCONI AVE & DARWIN ST (EB),,,
38.61808,1264,-121.414291,1264,MARCONI AVE & PYRAMID WAY (EB),,,
38.618027,1265,-121.410217,1265,MARCONI AVE & BELL ST (EB),,,
38.617981,1266,-121.405609,1266,MARCONI AVE & WRIGHT ST (EB),,,
38.617909,1267,-121.400932,1267,MARCONI AVE & FULTON AVE (EB),,,
38.617889,1268,-121.397293,1268,MARCONI AVE & CORABEL LN (EB),,,
38.617855,1269,-121.394241,1269,MARCONI AVE & SANTA PAULA CT (EB),,,
38.617825,1270,-121.388054,1270,MARCONI AVE & ASHBOURNE DR (EB),,,
38.617725,1271,-121.382462,1271,MARCONI AVE & WATT AVE (EB),,,
38.617725,1272,-121.379135,1272,MARCONI AVE & MONTCLAIRE ST (EB),,,
38.617683,1273,-121.374138,1273,MARCONI AVE & BECCERRA WAY (EB),,,
38.61757,1274,-121.369333,1274,MARCONI AVE & NORRIS AVE (EB),,,
38.617558,1275,-121.363899,1275,MARCONI AVE & EASTERN AVE (EB),,,
38.617527,1276,-121.360275,1276,MARCONI AVE & GREENWOOD AVE (EB),,,
38.617432,1277,-121.355095,1277,MARCONI AVE & MISSION AVE (EB),,,
38.617371,1278,-121.35054,1278,MARCONI AVE & ROOT AVE (EB),,,
38.617291,1279,-121.345757,1279,MARCONI AVE & WALNUT AVE (EB),,,
38.617145,1280,-121.339872,1280,MARCONI AVE & GUNN LN (EB),,,
38.61711,1281,-121.336375,1281,MARCONI AVE & GARFIELD AVE (EB),,,
38.617078,1282,-121.33407,1282,MARCONI AVE & LA VISTA AVE (EB),,,
38.661265,1283,-121.388103,1283,DUDLEY BLVD & PEACEKEEPER WAY (NB),,,
38.616921,1284,-121.326531,1284,PALM DR & PANAMA AVE (EB),,,
38.714344,1285,-121.391718,1285,ELVERTA RD & WATT AVE (EB),,,
38.620391,1286,-121.321442,1286,CALIFORNIA AVE & MERRY LN (NB),,,
38.622504,1287,-121.321386,1287,CALIFORNIA AVE & STANLEY AVE (NB),,,
38.625712,1288,-121.321287,1288,CALIFORNIA AVE & LANDIS AVE (NB),,,
38.62967,1289,-121.321187,1289,CALIFORNIA AVE & GRANT AVE (NB),,,
38.632859,1290,-121.321077,1290,CALIFORNIA AVE & SUTTER AVE (NB),,,
38.718461,1291,-121.382252,1291,ELVERTA RD & BLACK EAGLE DR (WB),,,
38.637336,1292,-121.320965,1292,CALIFORNIA AVE & FAIR OAKS BLVD (NB),,,
38.640261,1293,-121.320873,1293,CALIFORNIA AVE & LINCOLN AVE (NB),,,
38.642811,1294,-121.319288,1294,JAN DR & JASPAR CT (NB),,,
38.645224,1295,-121.318535,1295,JAN DR & RAMPART DR (NB),,,
38.649018,1296,-121.317838,1296,WINDING WY & JAN DR (EB),,,
38.649002,1298,-121.31309,1298,WINDING WY & BARRETT RD (EB),,,
38.649583,1299,-121.308242,1299,DEWEY DR & WINDING WAY (NB),,,
38.652285,1300,-121.308222,1300,DEWEY DR & PAPAYA DR (NB),,,
38.654502,1301,-121.308222,1301,DEWEY DR & WILL ROGERS DR (NB),,,
38.658575,1302,-121.308282,1302,DEWEY DR & HILLHURST DR (NB),,,
38.717126,1303,-121.374954,1303,ELVERTA RD & N LOOP BLVD (WB),,,
38.66177,1305,-121.30842,1305,DEWEY DR & PALM AVE (NB),,,
38.716254,1306,-121.37402,1306,ELVERTA RD & TYSON DR (EB),,,
38.708574,1307,-121.363262,1307,WALERGA RD & BIG CLOUD WAY (SB),,,
38.678293,1308,-121.320179,1308,GREENBACK LN & DESIMONE (EB),,,
38.677928,1309,-121.315918,1309,GREENBACK LN & PARK OAKS DR (EB),,,
38.678028,1310,-121.3097,1310,GREENBACK LN & DEWEY DR (EB),,,
38.678041,1311,-121.304917,1311,GREENBACK LN & HILLTREE AVE (EB),,,
38.684197,1312,-121.438325,1312,DRY CREEK RD & ELKHORN BLVD (NB),,,
38.678152,1313,-121.295122,1313,GREENBACK LN & SHUPE DR (EB),,,
38.678185,1314,-121.292008,1314,GREENBACK LN & SAN JUAN AVE (EB),,,
38.678181,1315,-121.283852,1315,GREENBACK LN & MARIPOSA AVE (EB),,,
38.678246,1316,-121.281258,1316,GREENBACK LN & PATTERSON LN (EB),,,
38.678238,1317,-121.278381,1317,GREENBACK LN & MERLINDALE DR (EB),,,
38.678272,1318,-121.275688,1318,GREENBACK LN & BIRDCAGE ST (EB),,,
38.678566,1322,-121.258598,1322,GREENBACK LN & KIFISIA WAY (EB),,,
38.678583,1323,-121.254642,1323,GREENBACK LN & HOFFMAN LN (EB),,,
38.678627,1324,-121.249718,1324,GREENBACK LN & TRAJAN DR (EB),,,
38.678597,1325,-121.244156,1325,GREENBACK LN & KENNETH AVE (EB),,,
38.678509,1326,-121.239616,1326,GREENBACK LN & ALMOND AVE (EB),,,
38.678452,1327,-121.234711,1327,GREENBACK LN & ILLINOIS AVE (EB),,,
38.683732,1333,-121.437885,1333,ELKHORN BLVD & DRY CREEK RD (EB),,,
38.655921,1334,-121.540788,1334,DEL PASO RD & EL CENTRO RD (WB),,,
38.655551,1335,-121.538595,1335,DEL PASO RD & EL CENTRO RD (EB),,,
38.67762,1337,-121.292587,1337,SAN JUAN AVE & GREENBACK LN (SB),,,
38.67495,1338,-121.292481,1338,SAN JUAN AVE & SPERRY DR (SB),,,
38.669571,1339,-121.292366,1339,SAN JUAN AVE & SPICER DR (SB),,,
38.667336,1340,-121.29232,1340,SAN JUAN AVE & CHESLINE DR (SB),,,
38.663044,1341,-121.292313,1341,SAN JUAN AVE & MADISON AVE (SB),,,
38.660313,1342,-121.292236,1342,SAN JUAN AVE & GAIL WAY (SB),,,
38.656849,1343,-121.29216,1343,SAN JUAN AVE & PHEASANT RD (SB),,,
38.653603,1344,-121.292108,1344,SAN JUAN AVE & SUNSET AVE (SB),,,
38.565576,1345,-121.507571,1345,BROADWAY & 5TH STREET (EB),,,
38.650097,1346,-121.29216,1346,SAN JUAN AVE & HEATHER RD (SB),,,
38.636395,1348,-121.292641,1348,FAIR OAKS BLVD & SAN JUAN AVE (WB),,,
38.636414,1349,-121.29496,1349,FAIR OAKS BLVD & GROVER LN (WB),,,
38.63652,1350,-121.301041,1350,FAIR OAKS BLVD & HOLLISTER AVE (WB),,,
38.636631,1351,-121.3088,1351,FAIR OAKS BLVD & MARSHALL AVE (WB),,,
38.514685,1352,-121.509169,1352,43RD AVE & 13TH STREET (EB),,,
38.636726,1353,-121.315109,1353,FAIR OAKS BLVD & MILES LANE (WB),,,
38.63688,1354,-121.321315,1354,FAIR OAKS BLVD & CALIFORNIA AVE (WB),,,
38.63697,1355,-121.326302,1355,FAIR OAKS BLVD & WAYSIDE LN (WB),,,
38.636255,1356,-121.328217,1356,FAIR OAKS BLVD & GIBBONS DR (SB),,,
38.631225,1357,-121.328388,1357,FAIR OAKS BLVD & ENGLE RD (SB),,,
38.62924,1358,-121.328408,1358,FAIR OAKS BLVD & GRANT AVE (SB),,,
38.626905,1359,-121.328488,1359,FAIR OAKS BLVD & LANDIS AVE (SB),,,
38.622512,1360,-121.328547,1360,FAIR OAKS BLVD & ANGELINA AVE (SB),,,
38.619447,1361,-121.328647,1361,FAIR OAKS BLVD & ROBERTSON AVE (SB),,,
38.616715,1363,-121.328774,1363,FAIR OAKS BLVD & MARCONI AVE (SB),,,
38.656115,1364,-121.522994,1364,DEL PASO RD & TOWN CENTER DR (WB),,,
38.609924,1365,-121.329598,1365,EL CAMINO AVE & FAIR OAKS BLVD (WB),,,
38.609955,1366,-121.332703,1366,EL CAMINO AVE & EL TONAS WAY (WB),,,
38.610027,1367,-121.33754,1367,EL CAMINO AVE & GARFIELD AVE (WB),,,
38.610062,1368,-121.340698,1368,EL CAMINO AVE & GUNN LN (WB),,,
38.610115,1369,-121.346794,1369,EL CAMINO AVE & WALNUT AVE (WB),,,
38.610146,1370,-121.349747,1370,EL CAMINO AVE & LAURENCE AVE (WB),,,
38.610169,1371,-121.352753,1371,EL CAMINO AVE & LANDWOOD WAY (WB),,,
38.610199,1372,-121.355599,1372,EL CAMINO AVE & MISSION AVE (WB),,,
38.610252,1373,-121.360169,1373,EL CAMINO AVE & GREENWOOD AVE (WB),,,
38.610348,1374,-121.365517,1374,EL CAMINO AVE & EASTERN AVE (WB),,,
38.610352,1375,-121.369438,1375,EL CAMINO AVE & AVALON DR (WB),,,
38.610375,1376,-121.372154,1376,EL CAMINO AVE & IONE ST (WB),,,
38.610485,1377,-121.376213,1377,EL CAMINO AVE & ANDRADE WAY (WB),,,
38.610508,1378,-121.37957,1378,EL CAMINO AVE & BUTANO DR (WB),,,
38.610573,1380,-121.383461,1380,EL CAMINO AVE & WATT AVE (WB),,,
38.610569,1381,-121.385666,1381,EL CAMINO AVE & YORKTOWN AVE (WB),,,
38.61063,1382,-121.390167,1382,EL CAMINO AVE & MORSE AVE/DRAYTON DR (WB),,,
38.610638,1383,-121.392372,1383,EL CAMINO AVE & MORSE AVE (WB),,,
38.610718,1384,-121.397072,1384,EL CAMINO AVE & BELPORT LN (WB),,,
38.610737,1385,-121.398529,1385,EL CAMINO AVE & PARKWOOD DR (WB),,,
38.610809,1386,-121.402397,1386,EL CAMINO AVE & FULTON AVE (WB),,,
38.610832,1387,-121.406426,1387,EL CAMINO AVE & WRIGHT ST (WB),,,
38.610882,1388,-121.411209,1388,EL CAMINO AVE & BELL ST (WB),,,
38.61097,1389,-121.416237,1389,EL CAMINO AVE & HOWE AVE (WB),,,
38.610714,1390,-121.420044,1390,ETHAN WAY & EL CAMINO AVE (SB),,,
38.608513,1391,-121.420059,1391,ETHAN WAY & SILICA AVE (SB),,,
38.605366,1392,-121.420067,1392,ETHAN WAY & KEITH WAY (SB),,,
38.603424,1393,-121.420067,1393,ETHAN WAY & SURREY RD (SB),,,
38.601776,1394,-121.42009,1394,ETHAN WAY & JAMESTOWN DR (SB),,,
38.598518,1395,-121.420097,1395,ETHAN WAY & MIDDLEBERRY RD (SB),,,
38.69051,1396,-121.383759,1396,ELKHORN BLVD & WATT AVE (WB),,,
38.569889,1397,-121.301389,1397,SCHRIEVER AVE & PETER A MCCUEN BLVD (NB),,,
38.569176,1398,-121.301009,1398,DELBELLEVUE ST & PETER A MCCUEN BLVD (SB),,,
38.56895,1399,-121.297668,1399,ARMSTRONG AVE & WHITEHEAD ST (WB),,,
38.611153,1400,-121.459854,1400,EL CAMINO AVE & GROVE AVE (WB),,,
38.611126,1401,-121.462097,1401,EL CAMINO AVE & EDGEWATER RD (WB),,,
38.611141,1402,-121.464516,1402,COLFAX ST & EL CAMINO AVE (SB),,,
38.611244,1403,-121.472351,1403,W ELCAMINO AVE & AMERICAN AVE (WB),,,
38.611282,1404,-121.475945,1404,W ELCAMINO AVE & NORTHGATE BLVD (WB),,,
38.611614,1405,-121.478928,1405,W ELCAMINO AVE & NORTHVIEW DR (WB),,,
38.611923,1406,-121.480721,1406,W ELCAMINO AVE & NORMINGTON DR (WB),,,
38.612743,1407,-121.485573,1407,W ELCAMINO AVE & DORINE WAY (WB),,,
38.612904,1408,-121.489143,1408,W ELCAMINO AVE & ERIN DR (WB),,,
38.61298,1409,-121.49366,1409,W ELCAMINO AVE & STONECREEK DR (WB),,,
38.612843,1410,-121.498276,1410,W ELCAMINO AVE & TRUXEL RD (WB),,,
38.612808,1411,-121.501358,1411,W ELCAMINO AVE & MILLCREEK DR (EB),,,
38.612991,1412,-121.505547,1412,W ELCAMINO AVE & AZEVEDO DR (WB),,,
38.61364,1413,-121.507668,1413,W ELCAMINO AVE & CAPITOL OAKS DR (WB),,,
38.61319,1414,-121.517075,1414,GATEWAY OAKS DR & W ELCAMINO AVE (SB),,,
38.608906,1415,-121.516701,1415,GATEWAY OAKS DR & OAK HARBOUR DR (SB),,,
38.607182,1416,-121.512886,1416,GATEWAY OAKS DR & VENTURE OAKS WAY (SB),,,
38.605171,1417,-121.513756,1417,GATEWAY OAKS DR & RIVER PLAZA DR (SB),,,
38.570901,1418,-121.293869,1418,BLECKELY ST & SCHIRRA AVE (NB),,,
38.575087,1419,-121.291728,1419,FEMOYER ST & INTERNATIONAL DR (SB),,,
38.575426,1420,-121.292412,1420,INTERNATIONAL DR & FEMOYER ST (WB),,,
38.628571,1421,-121.382301,1421,WHITNEY AVE & WATT AVE (EB),,,
38.628536,1422,-121.377899,1422,WHITNEY AVE & MONTCLAIRE ST (EB),,,
38.628487,1423,-121.37355,1423,WHITNEY AVE & BECCERRA WAY (EB),,,
38.62846,1424,-121.368881,1424,WHITNEY AVE & NORRIS AVE (EB),,,
38.628414,1425,-121.365006,1425,WHITNEY AVE & EASTERN AVE (EB),,,
38.57833,1426,-121.29544,1426,DATA DR & RESERVE DR (NB),,,
38.628315,1427,-121.359009,1427,WHITNEY AVE & CONCETTA WAY (EB),,,
38.62867,1428,-121.355144,1428,MISSION AVE & WHITNEY AVE (NB),,,
38.582584,1429,-121.295481,1429,DATA RD & 3466 DATA DR (NB),,,
38.584085,1430,-121.2933,1430,DATA DR & CAPITAL CENTER DR (EB),,,
38.57894,1431,-121.289701,1431,INTERNATIONAL DR & CAPITOL CENTER DR (WB),,,
38.570561,1432,-121.306313,1432,SCHRIEVER AVE & OLD PLACERVILLE RD (EB),,,
38.552371,1434,-121.452986,1434,Y STREET & 45TH (WB),,,
38.534573,1435,-121.748539,1435,MRAK HALL DRIVE & OLD DAVIS ROAD (SB),,,
38.534984,1436,-121.764449,1436,HEALTH SCIENCE DRIVE & LOT 56 (SB),,,
38.653626,1438,-121.354004,1438,MYRTLE AVE & AUBURN BLVD (EB),,,
38.653645,1439,-121.351853,1439,MYRTLE AVE & COLLEGE OAK DR (EB),,,
38.632949,1444,-121.345856,1444,WALNUT AVE & WALNUT POINTE LN (NB),,,
38.63608,1445,-121.345952,1445,WALNUT AVE & GIBBONS DR (NB),,,
38.638178,1446,-121.345932,1446,WALNUT AVE & CYPRESS AVE (NB),,,
38.638337,1447,-121.34609,1447,WALNUT AVE & CYPRESS AVE (SB),,,
38.634903,1448,-121.346072,1448,WALNUT AVE & GIBBONS DR (SB),,,
38.632737,1449,-121.346052,1449,WALNUT AVE & RALEIGH WAY (SB),,,
38.539221,1453,-121.753758,1453,HUTCHISON DRIVE & CALIFORNIA WAY (EB),,,
38.61079,1455,-121.414925,1455,EL CAMINO AVE & HOWE AVE (EB),,,
38.610654,1456,-121.410373,1456,EL CAMINO AVE & BELL ST (EB),,,
38.610625,1457,-121.405071,1457,EL CAMINO AVE & GWEN DR (EB),,,
38.610577,1458,-121.400747,1458,EL CAMINO AVE & FULTON AVE (EB),,,
38.610558,1460,-121.395523,1460,EL CAMINO AVE & MEADOWBROOK RD (EB),,,
38.610481,1461,-121.392037,1461,EL CAMINO AVE & MORSE AVE (EB),,,
38.610455,1462,-121.389816,1462,EL CAMINO AVE & DRAYTON DR (EB),,,
38.610416,1463,-121.385063,1463,EL CAMINO AVE & YORKTOWN AVE (EB),,,
38.610264,1464,-121.382408,1464,EL CAMINO AVE & WATT AVE (EB),,,
38.610352,1465,-121.378807,1465,EL CAMINO AVE & BUTANO DR (EB),,,
38.610321,1466,-121.375938,1466,EL CAMINO AVE & ANDRADE WAY (EB),,,
38.610272,1467,-121.37204,1467,EL CAMINO AVE & IONE ST (EB),,,
38.610222,1468,-121.368675,1468,EL CAMINO AVE & AVALON DR (EB),,,
38.610195,1469,-121.364151,1469,EL CAMINO AVE & EASTERN AVE (EB),,,
38.610165,1470,-121.360237,1470,EL CAMINO AVE & GREENWOOD AVE (EB),,,
38.610115,1471,-121.355141,1471,EL CAMINO AVE & MISSION AVE (EB),,,
38.610085,1472,-121.352348,1472,EL CAMINO AVE & LANDWOOD WAY (EB),,,
38.610062,1473,-121.35038,1473,EL CAMINO AVE & VIA CAMINO AVE (EB),,,
38.609989,1474,-121.348785,1474,EL CAMINO AVE & UPHAM CT (EB),,,
38.609943,1475,-121.345345,1475,EL CAMINO AVE & WALNUT AVE (EB),,,
38.609928,1476,-121.341278,1476,EL CAMINO AVE & GUNN RD (EB),,,
38.60986,1477,-121.335991,1477,EL CAMINO AVE & GARFIELD AVE (EB),,,
38.609852,1478,-121.333008,1478,EL CAMINO AVE & EL TONAS WAY (EB),,,
38.617635,1481,-121.328388,1481,FAIR OAKS BLVD & PALM DR (NB),,,
38.619565,1482,-121.328408,1482,FAIR OAKS BLVD & ROBERTSON AVE (NB),,,
38.622645,1483,-121.328388,1483,FAIR OAKS BLVD & STANLEY AVE (NB),,,
38.62577,1484,-121.328288,1484,FAIR OAKS BLVD & LANDIS AVE (NB),,,
38.629833,1485,-121.32817,1485,FAIR OAKS BLVD & GRANT AVE (NB),,,
38.632297,1486,-121.32807,1486,FAIR OAKS BLVD & SHIRLEY AVE (NB),,,
38.636733,1488,-121.324312,1488,FAIR OAKS BLVD & WAYSIDE LN (EB),,,
38.63666,1489,-121.319988,1489,FAIR OAKS BLVD & CALIFORNIA AVE (EB),,,
38.636567,1490,-121.315796,1490,FAIR OAKS BLVD & QUEENSTON CT (EB),,,
38.636435,1492,-121.307948,1492,FAIR OAKS BLVD & CHAMPLAIN LN (EB),,,
38.636253,1493,-121.299866,1493,FAIR OAKS BLVD & HOLLISTER AVE (EB),,,
38.636209,1494,-121.296524,1494,FAIR OAKS BLVD & DELL RD (EB),,,
38.637367,1495,-121.291779,1495,SAN JUAN AVE & FAIR OAKS BLVD (NB),,,
38.645012,1497,-121.291824,1497,SAN JUAN AVE & WINDING WAY (NB),,,
38.653225,1499,-121.292061,1499,SAN JUAN AVE & SUNSET AVE (NB),,,
38.656866,1500,-121.29201,1500,SAN JUAN AVE & FAIRWAY TWO AVE (NB),,,
38.660351,1501,-121.292175,1501,SAN JUAN AVE & GAIL WAY (NB),,,
38.664032,1502,-121.292221,1502,SAN JUAN AVE & MADISON AVE (NB),,,
38.667824,1503,-121.292275,1503,SAN JUAN AVE & WILLOW CREEK DR (NB),,,
38.670319,1504,-121.292328,1504,SAN JUAN AVE & RANCH AVE (NB),,,
38.674038,1505,-121.292381,1505,SAN JUAN AVE & NORTHLEA WAY (NB),,,
38.637131,1518,-121.383557,1518,AUBURN BLVD & WATT AVE (WB),,,
38.632893,1519,-121.394295,1519,AUBURN BLVD & MORSE AVE (WB),,,
38.629498,1520,-121.40165,1520,FULTON AVE & AUBURN BLVD (SB),,,
38.626453,1521,-121.401665,1521,FULTON AVE & EDISON AVE (SB),,,
38.624699,1522,-121.401657,1522,FULTON AVE & POPE AVE (SB),,,
38.621414,1523,-121.401672,1523,FULTON AVE & CARSON WAY (SB),,,
38.617714,1524,-121.401703,1524,FULTON AVE & MARCONI AVE (SB),,,
38.615227,1525,-121.401672,1525,FULTON AVE & MARCONI AVE (SB),,,
38.61282,1526,-121.401665,1526,FULTON AVE & EL CAMINO AVE (SB),,,
38.610146,1527,-121.40168,1527,FULTON AVE & EL CAMINO AVE (SB),,,
38.606197,1528,-121.401665,1528,FULTON AVE & HERNANDO RD (SB),,,
38.603241,1529,-121.401703,1529,FULTON AVE & COTTAGE WAY (SB),,,
38.599377,1530,-121.401672,1530,FULTON AVE & ALTA ARDEN EXWY (SB),,,
38.595635,1531,-121.401703,1531,FULTON AVE & ARDEN WAY (SB),,,
38.591858,1532,-121.40165,1532,FULTON AVE & WITTKOP WAY (SB),,,
38.588574,1533,-121.401672,1533,FULTON AVE & HURLEY WY (SB),,,
38.584492,1534,-121.401654,1534,FULTON AVE & LARKSPUR LN (SB),,,
38.581143,1535,-121.40165,1535,FULTON AVE & NORTHROP AVE (SB),,,
38.576832,1536,-121.401665,1536,MUNROE ST & SIERRA BLVD (SB),,,
38.573917,1537,-121.401688,1537,MUNROE ST & FAIR OAKS BLVD (SB),,,
38.570953,1538,-121.401772,1538,MUNROE ST & LATHAM DR (SB),,,
38.569031,1539,-121.403671,1539,AMERICAN RIVER DR & MUNROE ST (WB),,,
38.569725,1540,-121.406921,1540,AMERICAN RIVER DR & SCRIPPS DR (WB),,,
38.555176,1541,-121.411095,1541,COLLEGE TOWNE DR & LA RIVIERA DR (WB),,,
38.565094,1542,-121.409294,1542,HOWE AVE & SWARTHMORE DR (SB),,,
38.553242,1543,-121.412926,1543,HORNET DR & COLLEGE TOWN DR (SB),,,
38.565739,1545,-121.408854,1545,HOWE AVE & SWARTHMORE DR (NB),,,
38.569599,1546,-121.408409,1546,AMERICAN RIVER DR & HOWE AVE (EB),,,
38.569028,1547,-121.402938,1547,MUNROE ST & AMERICAN RIVER DR (NB),,,
38.571136,1548,-121.401428,1548,MUNROE ST & LATHAM DR (NB),,,
38.575009,1549,-121.401388,1549,MUNROE ST & FAIR OAKS BLVD (NB),,,
38.578041,1550,-121.401364,1550,FULTON AVE & SIERRA BLVD (NB),,,
38.581763,1551,-121.401361,1551,FULTON AVE & NORTHROP AVE (NB),,,
38.585539,1552,-121.40138,1552,FULTON AVE & LARKSPUR LN (NB),,,
38.589252,1553,-121.401377,1553,FULTON AVE & HURLEY WY (NB),,,
38.593848,1554,-121.401377,1554,FULTON AVE & MAISON WAY (NB),,,
38.596365,1555,-121.40135,1555,FULTON AVE & ARDEN WAY (NB),,,
38.600268,1556,-121.401369,1556,FULTON AVE & ALTA ARDEN EXWY (NB),,,
38.6038,1557,-121.401337,1557,FULTON AVE & COTTAGE WAY (NB),,,
38.606221,1558,-121.401372,1558,FULTON AVE & LOMA VISTA DR (NB),,,
38.611195,1559,-121.401348,1559,FULTON AVE & EL CAMINO AVE (NB),,,
38.613153,1560,-121.401353,1560,FULTON AVE & ELVYRA WAY (NB),,,
38.615074,1561,-121.401348,1561,FULTON AVE & MARCONI AVE (NB),,,
38.619195,1562,-121.401334,1562,FULTON AVE & MARCONI AVE (NB),,,
38.622013,1564,-121.401329,1564,FULTON AVE & CARSON WAY (NB),,,
38.62458,1565,-121.401326,1565,FULTON AVE & POPE AVE (NB),,,
38.627623,1566,-121.401329,1566,FULTON AVE & EDISON AVE (NB),,,
38.69259,1567,-121.588706,1567,SACRAMENTO INTERNATIONAL AIRPORT & TERMINAL A (NB),,,
38.691306,1568,-121.590639,1568,SACRAMENTO INTERNATIONAL AIRPORT & TERMINAL B (SB),,,
38.71266,1570,-121.364678,1570,WALERGA RD & ELVERTA RD (SB),,,
38.701754,1576,-121.331962,1576,ROSEVILLE RD & ANTELOPE RD (SB),,,
38.630173,1596,-121.400902,1596,AUBURN BLVD & FULTON AVE (EB),,,
38.632885,1597,-121.393997,1597,AUBURN BLVD & MORSE AVE (EB),,,
38.635327,1598,-121.387489,1598,AUBURN BLVD & WATT AVE (EB),,,
38.549172,1600,-121.428009,1600,65TH ST & 4TH AVE (SB),,,
38.544758,1602,-121.427963,1602,65TH ST & 8TH AVE (SB),,,
38.542244,1603,-121.427956,1603,65TH ST & 11TH AVE (SB),,,
38.539162,1604,-121.427757,1604,65TH ST & 14TH AVE (SB),,,
38.535896,1605,-121.427551,1605,65TH ST & 18TH AVE (SB),,,
38.531864,1606,-121.42778,1606,65TH ST & 21ST AVE (SB),,,
38.524719,1607,-121.427681,1607,65TH ST & FRUITRIDGE RD (SB),,,
38.519432,1608,-121.42762,1608,65TH ST & MCMAHON DR (SB),,,
38.515743,1609,-121.427597,1609,65TH ST & LEMON HILL AVE (SB),,,
38.510151,1610,-121.427605,1610,65TH ST & ELDERCREEK RD (SB),,,
38.501547,1611,-121.429495,1611,65TH ST & 53RD AVE (SB),,,
38.50042,1612,-121.433701,1612,65TH ST & SKY PKWY (WB),,,
38.498283,1613,-121.438271,1613,65TH ST & FLORIN RD (SB),,,
38.655713,1617,-121.524142,1617,DEL PASO RD & E COMMERCE WAY (EB),,,
38.718357,1618,-121.380534,1618,ELVERTA RD & AZTEC WAY (EB),,,
38.646932,1619,-121.487989,1619,N MARKET BLVD & NATIONAL RD (WB),,,
38.60648,1635,-121.463175,1635,ARDEN WAY & COLFAX ST (WB),,,
38.557231,1645,-121.21786,1645,CANYONLANDS DR & TIMBERLAND DR (EB),,,
38.602181,1646,-121.392349,1646,MORSE AVE & COTTAGE WAY (SB),,,
38.598232,1648,-121.392334,1648,MORSE AVE & GERALD AVE (SB),,,
38.595501,1649,-121.392365,1649,MORSE AVE & ARDEN WAY (SB),,,
38.59335,1650,-121.392288,1650,MORSE AVE & TRUSSEL WAY (SB),,,
38.59174,1651,-121.392311,1651,MORSE AVE & BERKSHIRE WAY (SB),,,
38.589165,1652,-121.392319,1652,MORSE AVE & HURLEY WAY (SB),,,
38.58511,1653,-121.392319,1653,MORSE AVE & HAMPTON RD (SB),,,
38.581776,1654,-121.392319,1654,MORSE AVE & NORTHROP AVE (SB),,,
38.581501,1655,-121.39782,1655,NORTHROP AVE & JONAS AVE (WB),,,
38.581554,1656,-121.402039,1656,NORTHROP AVE & FULTON AVE (WB),,,
38.581585,1657,-121.405327,1657,NORTHROP AVE & CARRO DR (WB),,,
38.581608,1658,-121.407608,1658,NORTHROP AVE & DORNAJO WAY (WB),,,
38.58165,1659,-121.410996,1659,NORTHROP AVE & BELL ST (WB),,,
38.581684,1660,-121.414009,1660,NORTHROP AVE & HOWE AVE (WB),,,
38.557421,1661,-121.192697,1661,GLASS BEACH DR & MACKERRICHER WAY (EB),,,
38.581535,1662,-121.414307,1662,NORTHROP AVE & HOWE AVE (EB),,,
38.581471,1663,-121.410797,1663,NORTHROP AVE & BELL ST (EB),,,
38.581474,1664,-121.407806,1664,NORTHROP AVE & PARK (EB),,,
38.581436,1665,-121.404434,1665,NORTHROP AVE & CARRO DR (EB),,,
38.581448,1666,-121.402641,1666,NORTHROP AVE & FULTON AVE (EB),,,
38.563693,1667,-121.202144,1667,EDINGTON DR & AMERICANOS BLVD (WB),,,
38.581417,1668,-121.396874,1668,NORTHROP AVE & JONAS AVE (EB),,,
38.581692,1669,-121.392243,1669,MORSE AVE & NORTHROP AVE (NB),,,
38.584904,1670,-121.392235,1670,MORSE AVE & AMBERWOOD RD (NB),,,
38.589066,1671,-121.392199,1671,MORSE AVE & HURLEY WAY (NB),,,
38.592274,1672,-121.392204,1672,MORSE AVE & BERKSHIRE WAY (NB),,,
38.594528,1673,-121.392166,1673,MORSE AVE & TRUSSEL WAY (NB),,,
38.596081,1674,-121.392151,1674,MORSE AVE & ARDEN WAY (NB),,,
38.598577,1675,-121.392161,1675,MORSE AVE & VIA GRANDE (NB),,,
38.601803,1677,-121.392137,1677,MORSE AVE & COTTAGE WAY (NB),,,
38.548608,1678,-121.238589,1678,ANATOLIA DR & CHRYSANTHY BLVD (NB),,,
38.571217,1679,-121.298055,1679,MATHER FIELD RD & PETER A MCCUEN BLVD (NB),,,
38.656144,1680,-121.517106,1680,DEL PASO RD & VIA INGOGLIA (WB),,,
38.510633,1686,-121.437337,1686,47th AVE & STOCKTON BLVD  (WB),,,
38.709491,1687,-121.363323,1687,WALERGA RD & BIG CLOUD WAY (NB),,,
38.704518,1688,-121.363478,1688,WALERGA RD & ANTELOPE RD (NB),,,
38.564683,1689,-121.434476,1689,J ST & 56TH ST (WB),,,
38.565748,1691,-121.438639,1691,J ST & 53RD ST (WB),,,
38.566055,1692,-121.439941,1692,J ST & RODEO WAY (WB),,,
38.566605,1693,-121.442009,1693,J ST & 51ST ST (WB),,,
38.567158,1694,-121.443821,1694,J ST & 48TH ST (WB),,,
38.567496,1695,-121.445189,1695,J ST & 47TH ST (WB),,,
38.568612,1697,-121.44928,1697,J ST & 43RD ST (WB),,,
38.569573,1699,-121.452959,1699,J ST & 40TH ST (WB),,,
38.570171,1700,-121.455114,1700,J ST & 39TH ST (WB),,,
38.570534,1701,-121.456494,1701,J ST & 38TH ST (WB),,,
38.57106,1702,-121.458452,1702,J ST & 36TH ST (WB),,,
38.571554,1703,-121.460309,1703,J ST & 35TH ST (WB),,,
38.572422,1704,-121.463552,1704,J ST & 33RD ST (WB),,,
38.5714,1705,-121.466004,1705,ALHAMBRA BLVD & K ST (SB),,,
38.571335,1707,-121.468651,1707,L ST & 29TH ST (WB),,,
38.571812,1708,-121.470543,1708,L ST & 28TH ST (WB),,,
38.57235,1709,-121.472588,1709,L ST & 26TH ST (WB),,,
38.573219,1710,-121.475868,1710,L ST & 24TH ST (WB),,,
38.573917,1711,-121.478516,1711,L ST & 22ND ST (WB),,,
38.552413,1714,-121.453335,1714,45th Street & Y Street (NB),,,
38.577968,1716,-121.484995,1716,J ST & 16TH ST (EB),,,
38.577412,1717,-121.482898,1717,J ST & 18TH ST (EB),,,
38.576844,1718,-121.480795,1718,J ST & 19TH ST (EB),,,
38.575857,1720,-121.477049,1720,J ST & 22ND ST (EB),,,
38.574814,1721,-121.473081,1721,J ST & 25TH ST (EB),,,
38.574051,1722,-121.470294,1722,J ST & 27TH ST (EB),,,
38.573724,1723,-121.469031,1723,J ST & 28TH ST (EB),,,
38.572651,1725,-121.46489,1725,J ST & ALHAMBRA BLVD (EB),,,
38.571907,1726,-121.462074,1726,J ST & 33RD ST (EB),,,
38.571208,1727,-121.459709,1727,J ST & 35TH ST (EB),,,
38.570614,1728,-121.457291,1728,J ST & 37TH ST (EB),,,
38.569817,1729,-121.454431,1729,J ST & 39TH ST (EB),,,
38.56929,1730,-121.452546,1730,J ST & 40TH ST (EB),,,
38.656214,1731,-121.513066,1731,DEL PASO RD & TRUXEL RD (WB),,,
38.568414,1732,-121.449319,1732,J ST & 43RD ST (EB),,,
38.567248,1734,-121.444883,1734,J ST & 47TH ST (EB),,,
38.566921,1735,-121.44342,1735,J ST & 48TH ST (EB),,,
38.566429,1736,-121.441582,1736,J ST & 51ST ST (EB),,,
38.565926,1737,-121.439652,1737,J ST & RODEO WAY (EB),,,
38.564491,1739,-121.434395,1739,J ST & 56TH ST (EB),,,
38.567984,1740,-121.429109,1740,CARLSON DR & H ST (NB),,,
38.569439,1741,-121.429772,1741,CARLSON DR & SANDBURG DR (NB),,,
38.570072,1742,-121.430489,1742,CARLSON DR & MCADOO AVE (NB),,,
38.571799,1743,-121.430568,1743,MESSINA DR & MCADOO AVE (EB),,,
38.572199,1744,-121.429205,1744,MESSINA DR & MODDISON AVE (EB),,,
38.57274,1745,-121.427368,1745,MESSINA DR & CAMELLIA AVE (EB),,,
38.573382,1746,-121.425185,1746,MESSINA DR & SPILMAN AVE (EB),,,
38.57439,1747,-121.425343,1747,SPILMAN AVE & ADA WAY (NB),,,
38.577049,1748,-121.428245,1748,SPILMAN AVE & CARLSON DR (NB),,,
38.578538,1749,-121.430841,1749,SPILMAN AVE & ROGER WAY (NB),,,
38.579514,1750,-121.433367,1750,SPILMAN AVE & MINERVA AVE (NB),,,
38.580402,1751,-121.435097,1751,SANDBURG DR & TEICHERT AVE (EB),,,
38.5798,1752,-121.437233,1752,SANDBURG DR & MODDISON AVE (EB),,,
38.578442,1753,-121.436241,1753,MODDISON AVE & CARRINGTON ST (SB),,,
38.575775,1754,-121.433846,1754,MODDISON AVE & MINERVA AVE (SB),,,
38.574356,1755,-121.432053,1755,MODDISON AVE & CARLSON DR (SB),,,
38.572846,1756,-121.432503,1756,CARLSON DR & WANDA WAY (SB),,,
38.571262,1757,-121.43216,1757,CARLSON DR & MESSINA DR (SB),,,
38.569079,1758,-121.429634,1758,CARLSON DR & SANDBURG DR (SB),,,
38.564697,1770,-121.503784,1770,BROADWAY & 8TH ST (WB),,,
38.565151,1771,-121.505447,1771,BROADWAY & 6TH ST (WB),,,
38.565872,1772,-121.507071,1772,5TH ST & BROADWAY (NB),,,
38.568663,1773,-121.505879,1773,5TH ST & V ST (NB),,,
38.57121,1774,-121.504778,1774,5TH ST & T ST (NB),,,
38.572969,1775,-121.503983,1775,5TH ST & R ST (NB),,,
38.574,1776,-121.50351,1776,5TH ST & Q ST (NB),,,
38.570259,1782,-121.488378,1782,Q ST & 16TH ST (EB),,,
38.569087,1784,-121.483979,1784,Q ST & 19TH ST (EB),,,
38.568458,1785,-121.481642,1785,Q ST & 21ST ST (EB),,,
38.565612,1790,-121.471024,1790,Q ST & 29TH ST (EB),,,
38.565762,1792,-121.467774,1792,STOCKTON BLVD & ALHAMBRA BLVD (EB),,,
38.563452,1793,-121.465748,1793,STOCKTON BLVD & 34TH ST (EB),,,
38.560078,1795,-121.466721,1795,34TH ST & T ST (SB),,,
38.558354,1796,-121.467346,1796,34TH ST & V ST (SB),,,
38.555859,1797,-121.468254,1797,34TH ST & X ST (SB),,,
38.553921,1798,-121.469078,1798,34TH ST & 1ST AVE (SB),,,
38.547459,1807,-121.454086,1807,STOCKTON BLVD & BROADWAY (NB),,,
38.549954,1808,-121.454987,1808,STOCKTON BLVD & 3RD AVE (NB),,,
38.551708,1809,-121.45565,1809,STOCKTON BLVD & 2ND AVE (NB),,,
38.55389,1810,-121.457054,1810,STOCKTON BLVD & X ST (NB),,,
38.555863,1811,-121.458845,1811,STOCKTON BLVD & COLONIAL WAY (NB),,,
38.553238,1818,-121.469231,1818,34TH ST & 2ND AVE (NB),,,
38.555218,1819,-121.468353,1819,34TH ST & Y ST (NB),,,
38.557223,1820,-121.467472,1820,34TH ST & W ST (NB),,,
38.558755,1821,-121.46689,1821,34TH ST & TRUCKEE WAY (NB),,,
38.563816,1824,-121.465904,1824,STOCKTON BLVD & 34TH ST (WB),,,
38.566336,1825,-121.468584,1825,P ST & ALHAMBRA BLVD (WB),,,
38.567014,1826,-121.47113,1826,P ST & 29TH ST (WB),,,
38.569828,1830,-121.48169,1830,P ST & 21ST ST (WB),,,
38.570237,1831,-121.483196,1831,P ST & 20TH ST (WB),,,
38.57163,1834,-121.488416,1834,P ST & 16TH ST (WB),,,
38.572277,1835,-121.491043,1835,P ST & 14TH ST (WB),,,
38.572643,1836,-121.492378,1836,P ST & 13TH ST (WB),,,
38.573269,1837,-121.494675,1837,P ST & 11TH ST (WB),,,
38.574202,1838,-121.497961,1838,P ST & 9TH ST (WB),,,
38.546177,1839,-121.453644,1839,STOCKTON BLVD & BROADWAY (SB),,,
38.543717,1841,-121.452278,1841,STOCKTON BLVD & 9TH AVE (SB),,,
38.541897,1842,-121.451271,1842,STOCKTON BLVD & 11TH AVE (SB),,,
38.540039,1843,-121.450193,1843,STOCKTON BLVD & 14TH AVE (SB),,,
38.538609,1844,-121.449448,1844,STOCKTON BLVD & 15TH AVE (SB),,,
38.537094,1845,-121.448586,1845,STOCKTON BLVD & 17TH AVE (SB),,,
38.535088,1846,-121.447449,1846,STOCKTON BLVD & PARKER AVE (SB),,,
38.533947,1847,-121.446899,1847,STOCKTON BLVD & ROOSEVELT AVE (SB),,,
38.531677,1848,-121.44587,1848,STOCKTON BLVD & 21ST AVE (SB),,,
38.529389,1849,-121.444756,1849,STOCKTON BLVD & LAWRENCE DR (SB),,,
38.527294,1850,-121.443825,1850,STOCKTON BLVD & FRUITRIDGE RD (SB),,,
38.524551,1851,-121.442574,1851,STOCKTON BLVD & FRUITRIDGE RD (SB),,,
38.522461,1852,-121.441574,1852,STOCKTON BLVD & SOUTHWEST AVE (SB),,,
38.520363,1853,-121.440605,1853,STOCKTON BLVD & GORDON DR (SB),,,
38.518566,1854,-121.439766,1854,STOCKTON BLVD & MCMAHON DR (SB),,,
38.515434,1855,-121.438324,1855,STOCKTON BLVD & LEMON HILL AVE (SB),,,
38.512009,1856,-121.436752,1856,STOCKTON BLVD & DIAS AVE (SB),,,
38.51025,1857,-121.435936,1857,STOCKTON BLVD & 47TH AVE (SB),,,
38.508221,1858,-121.434982,1858,STOCKTON BLVD & 48TH AVE (SB),,,
38.505196,1859,-121.433571,1859,STOCKTON BLVD & RIZA AVE (SB),,,
38.499981,1860,-121.43116,1860,STOCKTON BLVD & 65TH ST (SB),,,
38.498219,1861,-121.43029,1861,STOCKTON BLVD & LINDALE AVE (SB),,,
38.495941,1862,-121.42838,1862,FLORIN RD & STOCKTON BLVD (EB),,,
38.495912,1863,-121.423307,1863,FLORIN RD & CHANDLER DR (EB),,,
38.496686,1864,-121.416333,1864,BRIGGS DR & FLORIN RD (NB),,,
38.498481,1865,-121.417674,1865,BRIGGS DR & RIMROCK DR (NB),,,
38.499855,1866,-121.418728,1866,BRIGGS DR & CHANDLER DR (NB),,,
38.502631,1867,-121.419002,1867,BRIGGS DR & LAWNWOOD DR (NB),,,
38.503113,1868,-121.416599,1868,75TH ST & LAWNWOOD DR (NB),,,
38.505691,1870,-121.416494,1870,75TH ST & 51ST AVE (NB),,,
38.507635,1871,-121.4165,1871,75TH ST & 50TH AVE (NB),,,
38.508447,1872,-121.416486,1872,75TH ST & VALLECITOS WAY (NB),,,
38.51012,1873,-121.415797,1873,75TH ST & ELDERCREEK RD (NB),,,
38.510483,1874,-121.412186,1874,ELDERCREEK RD & SUN RIVER DR (EB),,,
38.510827,1875,-121.408955,1875,POWER INN RD & ELDERCREEK RD (NB),,,
38.513068,1876,-121.408963,1876,POWER INN RD & SIGNAL CT (NB),,,
38.515591,1877,-121.408973,1877,POWER INN RD & INDUSTRIAL PKWY (NB),,,
38.519713,1878,-121.408984,1878,POWER INN RD & 37TH AVE (NB),,,
38.521855,1879,-121.409003,1879,POWER INN RD & 35TH AVE (NB),,,
38.501679,1884,-121.431686,1884,STOCKTON BLVD & 65TH ST (NB),,,
38.506203,1885,-121.4338,1885,STOCKTON BLVD & FOWLER AVE (NB),,,
38.510784,1887,-121.435959,1887,STOCKTON BLVD & ELDERCREEK RD (NB),,,
38.512543,1888,-121.436783,1888,STOCKTON BLVD & DIAS AVE (NB),,,
38.516435,1889,-121.438515,1889,STOCKTON BLVD & LEMON HILL AVE (NB),,,
38.519054,1890,-121.439865,1890,STOCKTON BLVD & MCMAHON DR (NB),,,
38.521822,1891,-121.441012,1891,STOCKTON BLVD & JANSEN DR (NB),,,
38.525368,1892,-121.442734,1892,STOCKTON BLVD & FRUITRIDGE RD (NB),,,
38.527092,1893,-121.44355,1893,STOCKTON BLVD & FRUITRIDGE RD (NB),,,
38.529465,1894,-121.444656,1894,STOCKTON BLVD & LAWRENCE DR (NB),,,
38.532234,1895,-121.445931,1895,STOCKTON BLVD & 21ST AVE (NB),,,
38.534078,1896,-121.446693,1896,STOCKTON BLVD & 20TH AVE (NB),,,
38.537489,1898,-121.448514,1898,STOCKTON BLVD & SAN FRANCISCO BLVD (NB),,,
38.539736,1899,-121.449743,1899,STOCKTON BLVD & 14TH AVE (NB),,,
38.541924,1901,-121.451111,1901,STOCKTON BLVD & 11TH AVE (NB),,,
38.543755,1902,-121.452118,1902,STOCKTON BLVD & 9TH AVE (NB),,,
38.546837,1904,-121.454529,1904,BROADWAY & STOCKTON BLVD (WB),,,
38.546825,1905,-121.45694,1905,BROADWAY & 43RD ST (WB),,,
38.546825,1906,-121.459602,1906,BROADWAY & SAN JOSE WAY (WB),,,
38.54689,1907,-121.462128,1907,BROADWAY & LA SOLIDAD WAY (WB),,,
38.547085,1908,-121.4636,1908,BROADWAY & 39TH ST (WB),,,
38.549542,1911,-121.466827,1911,BROADWAY & 37TH ST (WB),,,
38.552925,1913,-121.469627,1913,BROADWAY & 34TH ST (WB),,,
38.554894,1914,-121.471336,1914,BROADWAY & 32ND ST (WB),,,
38.556469,1915,-121.473045,1915,BROADWAY & ALHAMBRA BLVD (WB),,,
38.557379,1916,-121.476094,1916,BROADWAY & 28TH ST (WB),,,
38.558025,1917,-121.478821,1917,BROADWAY & 26TH ST (WB),,,
38.558941,1918,-121.482147,1918,BROADWAY & 24TH ST (WB),,,
38.55962,1919,-121.484741,1919,BROADWAY & 22ND ST (WB),,,
38.559967,1920,-121.486069,1920,BROADWAY & 21ST ST (WB),,,
38.560477,1921,-121.48779,1921,BROADWAY & 19TH ST (WB),,,
38.561005,1922,-121.490013,1922,BROADWAY & 18TH ST (WB),,,
38.561371,1923,-121.491394,1923,BROADWAY & 17TH ST (WB),,,
38.562107,1924,-121.494064,1924,BROADWAY & 15TH ST (WB),,,
38.562763,1925,-121.496651,1925,BROADWAY & 13TH ST (WB),,,
38.563552,1926,-121.499299,1926,BROADWAY & RIVERSIDE BLVD (WB),,,
38.555786,1927,-121.472275,1927,BROADWAY & ALHAMBRA BLVD (EB),,,
38.552322,1930,-121.469299,1930,BROADWAY & 34TH ST (EB),,,
38.551025,1931,-121.468193,1931,BROADWAY & 35TH ST (EB),,,
38.548279,1932,-121.465874,1932,BROADWAY & 38TH ST (EB),,,
38.546032,1933,-121.464821,1933,M L KING JR BLVD & 7TH AVE (SB),,,
38.543427,1934,-121.464813,1934,M L KING JR BLVD & 9TH AVE (SB),,,
38.541668,1935,-121.464851,1935,M L KING JR BLVD & 12TH AVE (SB),,,
38.546955,1936,-121.463112,1936,BROADWAY & 39TH ST (EB),,,
38.546776,1937,-121.461197,1937,BROADWAY & SAN CARLOS WAY (EB),,,
38.546757,1938,-121.459221,1938,BROADWAY & SAN RAFAEL WAY (EB),,,
38.546719,1939,-121.455536,1939,BROADWAY & 44TH ST (EB),,,
38.563973,1940,-121.501038,1940,BROADWAY & 10TH ST (WB),,,
38.527954,1943,-121.41214,1943,VANDENBERG DR & 78TH ST (WB),,,
38.529339,1944,-121.414291,1944,BRADFORD DR & 25TH AVE (NB),,,
38.532125,1945,-121.41423,1945,BRADFORD DR & 21ST AVE (NB),,,
38.549213,1949,-121.466698,1949,BROADWAY & BRET HARTE CT (EB),,,
38.532073,1954,-121.425902,1954,21ST AVE & 67TH ST (EB),,,
38.53201,1955,-121.423557,1955,21ST AVE & 69TH ST (EB),,,
38.531955,1956,-121.420915,1956,21ST AVE & 71ST ST (EB),,,
38.531955,1957,-121.418013,1957,21ST AVE & LIPPITT LN (EB),,,
38.531947,1958,-121.41563,1958,21ST AVE & 76TH ST (EB),,,
38.532288,1960,-121.417175,1960,21ST AVE & QUONSET DR (WB),,,
38.532372,1961,-121.419251,1961,21ST AVE & 73RD ST (WB),,,
38.532379,1962,-121.42144,1962,21ST AVE & 71ST ST (WB),,,
38.532385,1963,-121.423825,1963,21ST AVE & 69TH ST (WB),,,
38.532402,1964,-121.426272,1964,21ST AVE & 67TH ST (WB),,,
38.539401,1975,-121.443518,1975,14TH AVE & 53RD ST (EB),,,
38.539451,1976,-121.437893,1976,14TH AVE & 58TH ST (EB),,,
38.539485,1977,-121.435699,1977,14TH AVE & 60TH ST (EB),,,
38.539503,1978,-121.433709,1978,14TH AVE & 62ND ST (EB),,,
38.539527,1979,-121.430855,1979,14TH AVE & 63RD ST (EB),,,
38.539417,1980,-121.441795,1980,14TH AVE & 55TH ST (EB),,,
38.529587,1985,-121.414358,1985,BRADFORD DR & 25TH AVE (SB),,,
38.520882,1998,-121.409287,1998,POWER INN RD & 36TH AVE (SB),,,
38.524807,1999,-121.409363,1999,POWER INN RD & FRUITRIDGE RD (SB),,,
38.519112,2001,-121.409279,2001,POWER INN RD & 38TH AVE (SB),,,
38.51347,2003,-121.409248,2003,POWER INN RD & 43RD AVE (SB),,,
38.510689,2004,-121.409683,2004,ELDERCREEK RD & POWER INN RD (WB),,,
38.510662,2005,-121.412605,2005,ELDERCREEK RD & SUN RIVER DR (WB),,,
38.510277,2006,-121.415985,2006,75TH ST & ELDERCREEK RD (SB),,,
38.508576,2007,-121.416672,2007,75TH ST & VALLECITOS WAY (SB),,,
38.507118,2008,-121.416695,2008,75TH ST & 50TH AVE (SB),,,
38.503288,2010,-121.416855,2010,75TH ST & LAWNWOOD DR (SB),,,
38.502567,2011,-121.419235,2011,BRIGGS DR & LAWNWOOD DR (SB),,,
38.500153,2012,-121.419113,2012,BRIGGS DR & CHANDLER DR (SB),,,
38.498375,2013,-121.417847,2013,BRIGGS DR & RIMROCK DR (SB),,,
38.49614,2014,-121.417076,2014,FLORIN RD & BRIGGS DR (WB),,,
38.496147,2015,-121.42347,2015,FLORIN RD & CHANDLER DR (WB),,,
38.49617,2016,-121.427246,2016,FLORIN RD & LINDALE DR (WB),,,
38.496277,2020,-121.429955,2020,FLORIN RD & STOCKTON BLVD (WB),,,
38.496243,2021,-121.434914,2021,FLORIN RD & FLORIN MALL DR (WB),,,
38.495346,2031,-121.45919,2031,FRANKLIN BLVD & FLORIN RD (SB),,,
38.492851,2032,-121.457832,2032,FRANKLIN BLVD & MEADOWGATE DR (SB),,,
38.47847,2062,-121.451691,2062,FRANKLIN BLVD & BOYCE DR (NB),,,
38.480839,2063,-121.452561,2063,FRANKLIN BLVD & BROOKFIELD DR (NB),,,
38.482189,2064,-121.454636,2064,BROOKFIELD DR & FRANKLIN BLVD (WB),,,
38.481899,2065,-121.458077,2065,BROOKFIELD DR & MEADOWSTONE (WB),,,
38.481632,2066,-121.46106,2066,BROOKFIELD DR & TEAK WAY (WB),,,
38.480874,2067,-121.462694,2067,MEADOWVIEW RD & BROOKFIELD DR (WB),,,
38.481533,2068,-121.464043,2068,MEADOWVIEW RD & BRANCHWOOD WAY (WB),,,
38.481583,2070,-121.472839,2070,MEADOWVIEW RD & 29TH ST (WB),,,
38.48156,2071,-121.475647,2071,MEADOWVIEW RD & CORAL GABLES CT (WB),,,
38.494038,2160,-121.458092,2160,FRANKLIN BLVD & MEADOWGATE DR (NB),,,
38.49604,2165,-121.434235,2165,FLORIN RD & FLORIN MALL DR (EB),,,
38.49733,2166,-121.429566,2166,STOCKTON BLVD & FLORIN RD (NB),,,
38.489521,2173,-121.456047,2173,FRANKLIN BLVD & BOUTS PARKWAY (SB),,,
38.490812,2174,-121.45632,2174,FRANKLIN BLVD & A PARKWAY (NB),,,
38.509483,2180,-121.542808,2180,FLORIN RD & RIVERSIDE BLVD (SB),,,
38.507073,2181,-121.540741,2181,FLORIN RD & WINDWARD WAY (SB),,,
38.503929,2183,-121.537987,2183,FLORIN RD & GLORIA DR (SB),,,
38.501167,2184,-121.536522,2184,FLORIN RD & ARK WAY (SB),,,
38.497269,2185,-121.530724,2185,FLORIN RD & HAVENSIDE DR (EB),,,
38.495682,2186,-121.523331,2186,FLORIN RD & GREENHAVEN DR (EB),,,
38.525124,2200,-121.424324,2200,FRUITRIDGE RD & ALCOTT DR (WB),,,
38.525204,2201,-121.409935,2201,FRUITRIDGE RD & POWER INN RD (WB),,,
38.525112,2202,-121.412308,2202,FRUITRIDGE RD & 79TH ST (WB),,,
38.52512,2203,-121.414665,2203,FRUITRIDGE RD & BRADFORD DR (WB),,,
38.525131,2204,-121.417152,2204,FRUITRIDGE RD & LOWELL ST (WB),,,
38.525131,2205,-121.419884,2205,FRUITRIDGE RD & EMERSON RD (WB),,,
38.525124,2206,-121.422051,2206,FRUITRIDGE RD & 70TH ST (WB),,,
38.525192,2207,-121.428139,2207,FRUITRIDGE RD & 65TH ST (WB),,,
38.525135,2208,-121.429726,2208,FRUITRIDGE RD & 64TH ST (WB),,,
38.525105,2209,-121.432274,2209,FRUITRIDGE RD & 62ND ST (WB),,,
38.525089,2210,-121.434036,2210,FRUITRIDGE RD & ARGO WAY (WB),,,
38.525051,2211,-121.436836,2211,FRUITRIDGE RD & 59TH ST (WB),,,
38.525036,2212,-121.438538,2212,FRUITRIDGE RD & 58TH ST (WB),,,
38.525028,2213,-121.440643,2213,FRUITRIDGE RD & 56TH ST (WB),,,
38.525021,2214,-121.443901,2214,FRUITRIDGE RD & STOCKTON BLVD (WB),,,
38.524971,2215,-121.448914,2215,FRUITRIDGE RD & MCGLASHAN ST (WB),,,
38.524986,2216,-121.452728,2216,FRUITRIDGE RD & ETHEL WAY (WB),,,
38.524979,2217,-121.456665,2217,FRUITRIDGE RD & 44TH ST (WB),,,
38.524963,2218,-121.460289,2218,FRUITRIDGE RD & ENRICO BLVD (WB),,,
38.525028,2220,-121.464249,2220,FRUITRIDGE RD & M L KING BL (WB),,,
38.525005,2221,-121.47229,2221,FRUITRIDGE RD & FRANKLIN BLVD (WB),,,
38.524922,2222,-121.47438,2222,FRUITRIDGE RD & ST JOSEPHS DR (WB),,,
38.524883,2223,-121.477768,2223,FRUITRIDGE RD & 28TH ST (WB),,,
38.524841,2224,-121.483894,2224,FRUITRIDGE RD & 24TH ST (WB),,,
38.52483,2225,-121.485993,2225,FRUITRIDGE RD & 23RD ST (WB),,,
38.524811,2226,-121.489082,2226,FRUITRIDGE RD & DANA WAY (WB),,,
38.524796,2227,-121.491943,2227,FRUITRIDGE RD & HELEN WAY (WB),,,
38.524777,2228,-121.494797,2228,FRUITRIDGE RD & CARMELA WAY (WB),,,
38.525172,2229,-121.496955,2229,FREEPORT BLVD & FRUITRIDGE RD (NB),,,
38.527222,2230,-121.496271,2230,FREEPORT BLVD & OREGON DR (NB),,,
38.529082,2231,-121.495633,2231,FREEPORT BLVD & IRVIN WAY (NB),,,
38.531157,2232,-121.494928,2232,FREEPORT BLVD & STACIA WAY (NB),,,
38.53419,2233,-121.493958,2233,FREEPORT BLVD & MEER WAY (NB),,,
38.535779,2234,-121.493452,2234,FREEPORT BLVD & 20TH AVE (NB),,,
38.538648,2235,-121.492595,2235,FREEPORT BLVD & SUTTERVILLE RD (NB),,,
38.540922,2236,-121.491891,2236,FREEPORT BLVD & 14TH AVE (NB),,,
38.543439,2237,-121.491065,2237,FREEPORT BLVD & 11TH AVE (NB),,,
38.545075,2238,-121.490577,2238,FREEPORT BLVD & 9TH AVE (NB),,,
38.546756,2239,-121.490027,2239,FREEPORT BLVD & 6TH AVE (NB),,,
38.548734,2240,-121.489402,2240,FREEPORT BLVD & WELLER WAY (NB),,,
38.551473,2241,-121.488506,2241,FREEPORT BLVD & 21ST ST (NB),,,
38.553514,2242,-121.487814,2242,21ST ST & 3RD AVE (NB),,,
38.554618,2243,-121.487538,2243,21ST ST & MARKHAM WAY (NB),,,
38.556841,2244,-121.486835,2244,21ST ST & 2ND AVE (NB),,,
38.558179,2245,-121.48625,2245,21ST ST & 1ST AVE (NB),,,
38.560109,2246,-121.485499,2246,21ST ST & BROADWAY (NB),,,
38.563305,2248,-121.484083,2248,21ST ST & V ST (NB),,,
38.566631,2250,-121.482654,2250,21ST ST & R ST (NB),,,
38.568821,2251,-121.481718,2251,21ST ST & Q ST (NB),,,
38.56995,2252,-121.48122,2252,21ST ST & P ST (NB),,,
38.573174,2254,-121.479912,2254,21ST ST & CAPITOL AVE (NB),,,
38.575816,2256,-121.481873,2256,19TH ST & K ST (SB),,,
38.574653,2257,-121.482377,2257,19TH ST & L ST (SB),,,
38.573548,2258,-121.482844,2258,19TH ST & CAPITOL AVE (SB),,,
38.570263,2260,-121.484306,2260,19TH ST & P ST (SB),,,
38.568903,2261,-121.484861,2261,19TH ST & Q ST (SB),,,
38.566952,2262,-121.485748,2262,19TH ST & S ST (SB),,,
38.563664,2264,-121.487175,2264,19TH ST & V ST (SB),,,
38.547749,2271,-121.490013,2271,FREEPORT BLVD & 7TH AVE (SB),,,
38.545499,2272,-121.490665,2272,FREEPORT BLVD & COLLEGE AVE (SB),,,
38.543699,2273,-121.491255,2273,FREEPORT BLVD & 11TH AVE (SB),,,
38.540993,2275,-121.492142,2275,FREEPORT BLVD & 14TH AVE (SB),,,
38.53793,2276,-121.493077,2276,FREEPORT BLVD & SUTTERVILLE RD (SB),,,
38.534725,2277,-121.49411,2277,FREEPORT BLVD & SUTTERVILLE RD (SB),,,
38.533455,2278,-121.494507,2278,FREEPORT BLVD & MEER WAY (SB),,,
38.531002,2279,-121.4953,2279,FREEPORT BLVD & WENTWORTH AVE (SB),,,
38.528442,2280,-121.496178,2280,FREEPORT BLVD & HARIAN WAY (SB),,,
38.527062,2281,-121.496636,2281,FREEPORT BLVD & OREGON DR (SB),,,
38.524639,2282,-121.496803,2282,FRUITRIDGE RD & FREEPORT BLVD (EB),,,
38.524689,2283,-121.494972,2283,FRUITRIDGE RD & CARMELA WAY (EB),,,
38.524719,2284,-121.492409,2284,FRUITRIDGE RD & HELEN WAY (EB),,,
38.524735,2285,-121.489639,2285,FRUITRIDGE RD & DANA WAY (EB),,,
38.524784,2286,-121.486176,2286,FRUITRIDGE RD & 23RD ST (EB),,,
38.524757,2287,-121.48288,2287,FRUITRIDGE RD & 24TH ST (EB),,,
38.524822,2288,-121.480217,2288,FRUITRIDGE RD & 28TH ST (EB),,,
38.524838,2289,-121.477112,2289,FRUITRIDGE RD & 28TH ST (EB),,,
38.524857,2290,-121.473961,2290,FRUITRIDGE RD & ST JOSEPHS DR (EB),,,
38.524816,2291,-121.47127,2291,FRUITRIDGE RD & FRANKLIN BLVD (EB),,,
38.524914,2292,-121.464264,2292,FRUITRIDGE RD & M L KING BL (EB),,,
38.524891,2293,-121.460548,2293,FRUITRIDGE RD & MENDOCINO BLVD (EB),,,
38.524887,2294,-121.458618,2294,FRUITRIDGE RD & 42ND ST (EB),,,
38.524902,2295,-121.455193,2295,FRUITRIDGE RD & 44TH ST (EB),,,
38.524914,2296,-121.451866,2296,FRUITRIDGE RD & BONNIE MAE WAY (EB),,,
38.524914,2297,-121.448998,2297,FRUITRIDGE RD & SAMPSON BLVD (EB),,,
38.524952,2298,-121.441849,2298,FRUITRIDGE RD & STOCKTON BLVD (EB),,,
38.524983,2299,-121.438591,2299,FRUITRIDGE RD & 58TH ST (EB),,,
38.524998,2300,-121.436478,2300,FRUITRIDGE RD & 59TH ST (EB),,,
38.525024,2301,-121.432571,2301,FRUITRIDGE RD & 62ND ST (EB),,,
38.52507,2302,-121.428482,2302,FRUITRIDGE RD & 64TH ST (EB),,,
38.525051,2303,-121.427124,2303,FRUITRIDGE RD & 65TH ST (EB),,,
38.525055,2304,-121.424835,2304,FRUITRIDGE RD & 66TH ST (EB),,,
38.525059,2305,-121.421303,2305,FRUITRIDGE RD & 71ST ST (EB),,,
38.525044,2306,-121.419716,2306,FRUITRIDGE RD & BELLEVIEW AVE (EB),,,
38.525066,2307,-121.417435,2307,FRUITRIDGE RD & WALLACE AVE (EB),,,
38.525059,2308,-121.414772,2308,FRUITRIDGE RD & WILKINSON ST (EB),,,
38.525017,2309,-121.411209,2309,FRUITRIDGE RD & 79TH ST (EB),,,
38.496277,2311,-121.438568,2311,FLORIN RD & 65TH ST (WB),,,
38.49622,2312,-121.452004,2312,FLORIN RD & EAST PKWY (WB),,,
38.496193,2313,-121.456078,2313,FLORIN RD & BOWLING DR (WB),,,
38.496193,2314,-121.461655,2314,FLORIN RD & FRANKLIN BLVD (WB),,,
38.496044,2315,-121.46801,2315,FLORIN RD & W SERENITY DR (WB),,,
38.495949,2317,-121.474159,2317,FLORIN RD & INDIAN LN (WB),,,
38.495953,2318,-121.479622,2318,FLORIN RD & WOODBINE AVE (WB),,,
38.495915,2319,-121.483803,2319,FLORIN RD & 24TH ST (WB),,,
38.495926,2320,-121.486168,2320,FLORIN RD & TAMOSHANTER WAY (WB),,,
38.495911,2321,-121.491699,2321,FLORIN RD & 21ST ST (WB),,,
38.495884,2322,-121.496071,2322,FLORIN RD & CROMWELL WAY (WB),,,
38.495873,2323,-121.499649,2323,FLORIN RD & 17TH ST (WB),,,
38.495907,2324,-121.503754,2324,FLORIN RD & AMHERST ST (WB),,,
38.495819,2325,-121.507164,2325,FLORIN RD & FREEPORT BLVD (WB),,,
38.495735,2326,-121.511055,2326,FLORIN RD & SLP DR (WB),,,
38.496189,2328,-121.523979,2328,FLORIN RD & GREENHAVEN DR (WB),,,
38.497669,2329,-121.531403,2329,FLORIN RD & HAVENSIDE DR (WB),,,
38.501568,2330,-121.536377,2330,FLORIN RD & ARK WAY (NB),,,
38.507316,2331,-121.511216,2331,13TH ST & SLP DR (NB),,,
38.509045,2332,-121.510511,2332,13TH ST & OAKRIDGE WAY (NB),,,
38.51077,2333,-121.510414,2333,13TH ST & 47TH AVE (NB),,,
38.512422,2334,-121.510173,2334,13TH ST & NORFOLK WAY (NB),,,
38.514363,2335,-121.509661,2335,13TH ST & 43RD AVE (NB),,,
38.513218,2337,-121.505348,2337,BLAIR AVE & BELLEAU WOOD LN (EB),,,
38.513604,2338,-121.500704,2338,FREEPORT BLVD & BLAIR AVE (NB),,,
38.516926,2339,-121.499573,2339,FREEPORT BLVD & KITCHNER RD (NB),,,
38.519958,2341,-121.498634,2341,FREEPORT BLVD & 35TH AVE (NB),,,
38.522514,2342,-121.497819,2342,FREEPORT BLVD & CLAUDIA DR (NB),,,
38.524376,2346,-121.497574,2346,FREEPORT BLVD & FRUITRIDGE RD (SB),,,
38.521993,2347,-121.498314,2347,FREEPORT BLVD & CLAUDIA DR (SB),,,
38.520199,2348,-121.49894,2348,FREEPORT BLVD & 35TH AVE (SB),,,
38.517414,2350,-121.499802,2350,FREEPORT BLVD & KITCHNER RD (SB),,,
38.514336,2351,-121.500786,2351,FREEPORT BLVD & MCALLISTER AVE (SB),,,
38.513336,2352,-121.506905,2352,43RD AVE & 14TH ST (EB),,,
38.514446,2353,-121.509873,2353,13TH ST & 43RD AVE (SB),,,
38.512253,2354,-121.510414,2354,13TH ST & NORFOLK WAY (SB),,,
38.510185,2355,-121.510643,2355,13TH ST & 47TH AVE (SB),,,
38.509102,2356,-121.510704,2356,13TH ST & OAKRIDGE WAY (NB),,,
38.506779,2357,-121.511993,2357,13TH ST & SLP DR (SB),,,
38.495476,2358,-121.511437,2358,FLORIN RD & SLP DR (EB),,,
38.49559,2359,-121.506989,2359,FLORIN RD & FREEPORT BLVD (EB),,,
38.495606,2360,-121.503059,2360,FLORIN RD & AMHERST ST (EB),,,
38.495651,2361,-121.499031,2361,FLORIN RD & 17TH ST (EB),,,
38.495667,2362,-121.495438,2362,FLORIN RD & CROMWELL WAY (EB),,,
38.49567,2363,-121.491043,2363,FLORIN RD & 21ST ST (EB),,,
38.495724,2364,-121.484573,2364,FLORIN RD & TAMOSHANTER WAY (EB),,,
38.495762,2365,-121.481873,2365,FLORIN RD & 24TH ST (EB),,,
38.495754,2366,-121.480034,2366,FLORIN RD & 25TH ST (EB),,,
38.495732,2367,-121.476108,2367,FLORIN RD & LOMA VERDE WAY (EB),,,
38.495789,2368,-121.473381,2368,FLORIN RD & 29TH ST (EB),,,
38.495846,2369,-121.471336,2369,FLORIN RD & SUNDOWN DR (EB),,,
38.495953,2370,-121.466217,2370,FLORIN RD & LUTHER DR (EB),,,
38.49599,2371,-121.461645,2371,FLORIN RD & MUNSON WAY (EB),,,
38.495964,2372,-121.458458,2372,FLORIN RD & FRANKLIN BLVD (EB),,,
38.495968,2373,-121.455055,2373,FLORIN RD & BOWLING DR (EB),,,
38.495998,2374,-121.450554,2374,FLORIN RD & EAST PKWY (EB),,,
38.476357,2375,-121.419785,2375,STOCKTON BLVD & ELSIE AVE (NB),,,
38.479446,2376,-121.421196,2376,STOCKTON BLVD & SUNCOUNTRY LN (NB),,,
38.481499,2377,-121.421333,2377,GERBER RD & STOCKTON BLVD (EB),,,
38.481567,2378,-121.415299,2378,GERBER RD & PAR PARKWY (EB),,,
38.481583,2379,-121.412735,2379,GERBER RD & PALMER HOUSE DR (EB),,,
38.483196,2381,-121.408722,2381,POWER INN RD & GERBER RD (NB),,,
38.487957,2382,-121.409241,2382,SCOTTSDALE DR & POWER INN RD (WB),,,
38.487919,2383,-121.414169,2383,PALMER HOUSE DR & SCOTTSDALE DR (NB),,,
38.490822,2385,-121.414787,2385,PALMER HOUSE DR & PICKOI CIR (NB),,,
38.490981,2399,-121.414921,2399,PALMER HOUSE DR & PICKOI CIR (SB),,,
38.488113,2400,-121.41452,2400,PALMER HOUSE DR & PICKOI CIR (SB),,,
38.487734,2401,-121.413455,2401,SCOTTSDALE DR & PALMER HOUSE DR (EB),,,
38.487854,2402,-121.409228,2402,SCOTTSDALE DR & POWER INN RD (EB),,,
38.48312,2403,-121.408966,2403,POWER INN RD & MAC FADDEN DR (SB),,,
38.481831,2404,-121.409966,2404,GERBER RD & POWER INN RD (WB),,,
38.481758,2405,-121.413666,2405,GERBER RD & PALMER HOUSE DR (WB),,,
38.481754,2406,-121.417061,2406,GERBER RD & PALMER HOUSE DR (WB),,,
38.481754,2407,-121.420082,2407,GERBER RD & WHISPER WILLOW DR (WB),,,
38.480244,2408,-121.421799,2408,STOCKTON BLVD & GERBER RD (SB),,,
38.478561,2409,-121.421043,2409,STOCKTON BLVD & MASSIE CT 1 (SB),,,
38.476425,2410,-121.420075,2410,STOCKTON BLVD & MASSIE CT 2 (SB),,,
38.541595,2425,-121.48536,2425,24TH ST & CITY COLLEGE LRT (NB),,,
38.48183,2469,-121.493299,2469,21ST ST & MEADOWVIEW RD (NB),,,
38.483273,2470,-121.492607,2470,21ST ST & COSGROVE WAY (NB),,,
38.485694,2471,-121.492342,2471,21ST ST & MATSON DR (NB),,,
38.489349,2472,-121.491888,2472,21ST ST & 68TH AVE (NB),,,
38.491177,2473,-121.491886,2473,21ST ST & WHITMAN WAY (NB),,,
38.493668,2474,-121.491966,2474,21ST ST & 65TH AVE (NB),,,
38.538452,2501,-121.484771,2501,SUTTERVILLE BYPASS & ATTAWA (WB),,,
38.538422,2502,-121.490997,2502,SUTTERVILLE RD & 21ST ST (EB),,,
38.538853,2503,-121.488327,2503,SUTTERVILLE RD & 23RD ST (EB),,,
38.540348,2504,-121.48024,2504,SUTTERVILLE RD & E PACIFIC AVE (EB),,,
38.54063,2505,-121.478111,2505,SUTTERVILLE RD & CUTTER AVE (EB),,,
38.541052,2506,-121.475363,2506,12TH AVE & FRANKLIN BLVD (EB),,,
38.541149,2507,-121.472626,2507,12TH AVE & 32ND ST (EB),,,
38.490715,2535,-121.480522,2535,24TH ST & 68TH AVE (SB),,,
38.486782,2536,-121.48053,2536,24TH ST & MATSON DR (SB),,,
38.484348,2537,-121.480522,2537,24TH ST & CASA LINDA DR (SB),,,
38.482152,2543,-121.480183,2543,24TH ST & MEADOWVIEW RD (NB),,,
38.556641,2569,-121.475975,2569,FRANKLIN BLVD & SAN FERNANDO WAY (SB),,,
38.553776,2570,-121.475952,2570,FRANKLIN BLVD & 2ND AVE (SB),,,
38.552258,2571,-121.47596,2571,FRANKLIN BLVD & 4TH AVE (SB),,,
38.548817,2572,-121.47599,2572,FRANKLIN BLVD & 5TH AVE (SB),,,
38.547234,2573,-121.475983,2573,FRANKLIN BLVD & CURTIS WAY (SB),,,
38.545815,2574,-121.475952,2574,FRANKLIN BLVD & 6TH AVE (SB),,,
38.544655,2575,-121.47596,2575,FRANKLIN BLVD & 8TH AVE (SB),,,
38.543709,2576,-121.475945,2576,FRANKLIN BLVD & 9TH AVE (SB),,,
38.542591,2577,-121.475952,2577,FRANKLIN BLVD & 11TH AVE (SB),,,
38.540585,2578,-121.475891,2578,FRANKLIN BLVD & SUTTERVILLE RD (SB),,,
38.537479,2579,-121.47509,2579,FRANKLIN BLVD & 16TH AVE (SB),,,
38.535065,2580,-121.474503,2580,FRANKLIN BLVD & 19TH AVE (SB),,,
38.5336,2581,-121.473251,2581,21ST AVE & FRANKLIN BLVD (EB),,,
38.533585,2582,-121.470299,2582,21ST AVE & 34TH ST (EB),,,
38.533588,2583,-121.468117,2583,21ST AVE & 36TH ST (EB),,,
38.533581,2584,-121.46563,2584,21ST AVE & 38TH ST (EB),,,
38.531097,2585,-121.464882,2585,M L KING JR BLVD & 24TH AVE (SB),,,
38.528706,2586,-121.464867,2586,M L KING JR BLVD & 26TH AVE (SB),,,
38.524674,2587,-121.464844,2587,M L KING JR BLVD & FRUITRIDGE RD (SB),,,
38.522286,2588,-121.464806,2588,M L KING JR BLVD & 32ND AVE (SB),,,
38.516144,2589,-121.464752,2589,M L KING JR BLVD & 41ST AVE (SB),,,
38.513706,2590,-121.464707,2590,M L KING JR BLVD & 44TH AVE (SB),,,
38.510658,2591,-121.464707,2591,M L KING JR BLVD & 47TH AVE (SB),,,
38.509716,2592,-121.46682,2592,FRANKLIN BLVD & 47TH AVE (SB),,,
38.506271,2593,-121.464981,2593,FRANKLIN BLVD & M L KING BLVD (SB),,,
38.503052,2594,-121.463249,2594,FRANKLIN BLVD & 52ND AVE (SB),,,
38.500641,2595,-121.461952,2595,FRANKLIN BLVD & TURNBRIDGE DR (SB),,,
38.498905,2596,-121.461029,2596,FRANKLIN BLVD & GREEN TREE DR (SB),,,
38.496571,2597,-121.45945,2597,FRANKLIN BLVD & FLORIN RD (NB),,,
38.498242,2598,-121.460358,2598,FRANKLIN BLVD & GREEN TREE DR (NB),,,
38.500263,2599,-121.461449,2599,FRANKLIN BLVD & TURNBRIDGE DR (NB),,,
38.503716,2600,-121.463295,2600,FRANKLIN BLVD & CUNY AVE (NB),,,
38.506996,2601,-121.465065,2601,FRANKLIN BLVD & M L KING BLVD (NB),,,
38.509743,2602,-121.466538,2602,FRANKLIN BLVD & 47TH AVE (NB),,,
38.510841,2603,-121.464523,2603,M L KING JR BLVD & 47TH AVE (NB),,,
38.51326,2604,-121.464584,2604,M L KING JR BLVD & 44TH AVE (NB),,,
38.516476,2605,-121.4646,2605,M L KING JR BLVD & 41ST AVE (NB),,,
38.522396,2606,-121.464513,2606,M L KING JR BLVD & 32ND AVE (NB),,,
38.525305,2607,-121.464508,2607,M L KING JR BLVD & FRUITRIDGE RD (NB),,,
38.52849,2608,-121.464635,2608,M L KING JR BLVD & 26TH AVE (NB),,,
38.532368,2609,-121.464635,2609,M L KING JR BLVD & 23RD ST (NB),,,
38.541054,2610,-121.46476,2610,M L KING JR BLVD & 12TH AVE (NB),,,
38.543484,2611,-121.464691,2611,M L KING JR BLVD & 9TH AVE (NB),,,
38.54623,2612,-121.464714,2612,M L KING JR BLVD & BROADWAY (NB),,,
38.533671,2613,-121.46508,2613,21ST AVE & M L KING BLVD (WB),,,
38.533687,2614,-121.46771,2614,21ST AVE & 36TH ST (WB),,,
38.533657,2615,-121.470764,2615,21ST AVE & 34TH ST (WB),,,
38.53418,2616,-121.47403,2616,FRANKLIN BLVD & 21ST AVE (NB),,,
38.535702,2617,-121.474403,2617,FRANKLIN BLVD & 19TH AVE (NB),,,
38.537895,2618,-121.47496,2618,FRANKLIN BLVD & 16TH AVE (NB),,,
38.539646,2619,-121.475388,2619,FRANKLIN BLVD & 14TH AVE (NB),,,
38.541473,2620,-121.475769,2620,FRANKLIN BLVD & 12TH AVE (NB),,,
38.543066,2621,-121.475734,2621,FRANKLIN BLVD & 10TH AVE (NB),,,
38.544677,2622,-121.475747,2622,FRANKLIN BLVD & 8TH AVE (NB),,,
38.547304,2623,-121.475744,2623,FRANKLIN BLVD & MONTGOMERY WAY (NB),,,
38.549572,2624,-121.475792,2624,FRANKLIN BLVD & 5TH AVE (NB),,,
38.550632,2625,-121.475731,2625,FRANKLIN BLVD & MARSHALL WAY (NB),,,
38.55269,2626,-121.475717,2626,FRANKLIN BLVD & 4TH AVE (NB),,,
38.555362,2627,-121.475739,2627,FRANKLIN BLVD & 2ND AVE (NB),,,
38.556877,2628,-121.475717,2628,FRANKLIN BLVD & SAN FERNANDO WAY (NB),,,
38.56552,2629,-121.469779,2629,30TH ST & Q ST (NB),,,
38.556352,2630,-121.472263,2630,ALHAMBRA BLVD & BROADWAY (NB),,,
38.558274,2631,-121.471404,2631,ALHAMBRA BLVD & W ST (NB),,,
38.559675,2632,-121.470798,2632,ALHAMBRA BLVD & V ST (NB),,,
38.562393,2633,-121.471191,2633,30TH ST & T ST (NB),,,
38.566707,2634,-121.469245,2634,30TH ST & P ST (NB),,,
38.568823,2635,-121.468341,2635,30TH ST & N ST (NB),,,
38.570037,2636,-121.46781,2636,30TH ST & CAPITOL AVE (NB),,,
38.571086,2637,-121.467352,2637,30TH ST & L ST (NB),,,
38.57325,2638,-121.466397,2638,30TH ST & J ST (NB),,,
38.576653,2639,-121.46493,2639,30TH ST & G ST (NB),,,
38.59684,2642,-121.426872,2642,CHALLENGE WAY & RESPONSE RD (NB),,,
38.596581,2643,-121.428352,2643,RESPONSE RD & CHALLENGE RD (WB),,,
38.59808,2644,-121.431023,2644,HERITAGE LN & RESPONSE RD (SB),,,
38.596817,2645,-121.427467,2645,CHALLENGE WAY & RESPONSE RD (SB),,,
38.595718,2646,-121.435204,2646,EXPOSITION BLVD & HERITAGE LN (WB),,,
38.595825,2647,-121.437256,2647,EXPOSITION BLVD & RESPONSE RD (WB),,,
38.578194,2648,-121.465942,2648,29TH ST & F ST (SB),,,
38.575268,2649,-121.467201,2649,29TH ST & H ST (SB),,,
38.573772,2650,-121.467834,2650,29TH ST & J ST (SB),,,
38.572193,2651,-121.468529,2651,29TH ST & K ST (SB),,,
38.569263,2653,-121.469846,2653,29TH ST & N ST (SB),,,
38.566628,2654,-121.471062,2654,29TH ST & P ST (SB),,,
38.558286,2655,-121.471632,2655,ALHAMBRA BLVD & W ST (SB),,,
38.559807,2656,-121.471024,2656,ALHAMBRA BLVD & V ST (SB),,,
38.539356,2657,-121.464272,2657,14TH AVE & 39TH ST (EB),,,
38.539433,2658,-121.462792,2658,14TH AVE & WASHINGTON AVE (EB),,,
38.539433,2659,-121.461647,2659,14TH AVE & SAN CARLOS WAY (EB),,,
38.539424,2660,-121.45894,2660,14TH AVE & 41ST ST (EB),,,
38.539009,2662,-121.455582,2662,44TH ST & 14TH AVE (SB),,,
38.536095,2664,-121.455544,2664,44TH ST & 18TH AVE (SB),,,
38.533447,2665,-121.455513,2665,44TH ST & ROOSEVELT AVE (SB),,,
38.532204,2666,-121.456192,2666,23RD AVE & 44TH ST (WB),,,
38.529881,2667,-121.456322,2667,44TH ST & 25TH ST (SB),,,
38.525578,2670,-121.456306,2670,44TH ST & FRUITRIDGE RD (SB),,,
38.524654,2671,-121.455452,2671,44TH ST & FRUITRIDGE RD (SB),,,
38.522545,2672,-121.455452,2672,44TH ST & IOWA AVE (SB),,,
38.519322,2675,-121.455452,2675,44TH ST & 37TH AVE (SB),,,
38.516876,2676,-121.45546,2676,44TH ST & 39TH AVE (SB),,,
38.510372,2678,-121.452141,2678,47TH AVE & 46TH ST (EB),,,
38.515621,2679,-121.455437,2679,44TH ST & 41ST AVE (SB),,,
38.512924,2680,-121.455437,2680,44TH ST & 44TH AVE (SB),,,
38.511303,2681,-121.455429,2681,44TH ST & 45TH AVE (SB),,,
38.51038,2682,-121.450256,2682,47TH AVE & 47TH ST (EB),,,
38.510555,2691,-121.446816,2691,47TH AVE & STEINER DR (WB),,,
38.510555,2692,-121.449585,2692,47TH AVE & SAMPSON BLVD (WB),,,
38.510555,2693,-121.452347,2693,47TH AVE & LAURINE WAY (WB),,,
38.510937,2694,-121.45527,2694,44TH ST & 47TH AVE (NB),,,
38.513389,2695,-121.455266,2695,44TH ST & 44TH AVE (NB),,,
38.515652,2696,-121.455306,2696,44TH ST & LEMON HILL AVE (NB),,,
38.516939,2699,-121.455294,2699,44TH ST & 39TH AVE (NB),,,
38.51995,2700,-121.455298,2700,44TH ST & 37TH AVE (NB),,,
38.522441,2703,-121.455314,2703,44TH ST & IOWA AVE (NB),,,
38.525251,2704,-121.456118,2704,44TH ST & FRUITRIDGE RD (NB),,,
38.529038,2706,-121.45618,2706,44TH ST & SIERRA VISTA AVE (NB),,,
38.531969,2707,-121.456242,2707,44TH ST & 23RD AVE (NB),,,
38.533879,2708,-121.455378,2708,44TH ST & ROOSEVELT AVE (NB),,,
38.536195,2709,-121.4554,2709,44TH ST & 18TH AVE (NB),,,
38.537208,2710,-121.455392,2710,44TH ST & ORINDA WAY (NB),,,
38.538813,2711,-121.455386,2711,44TH ST & 14TH AVE (NB),,,
38.539471,2712,-121.458191,2712,14TH AVE & 42ND ST (WB),,,
38.539471,2713,-121.459938,2713,14TH AVE & LISSETTA AVE (WB),,,
38.539475,2715,-121.462578,2715,14TH AVE & LA SOLIDAD WAY (WB),,,
38.644615,2719,-121.271217,2719,WINDING WY & SUNRISE BLVD (EB),,,
38.623428,2722,-121.26751,2722,TRINITY RIVER DR & SUNRISE BLVD (WB),,,
38.62141,2723,-121.270668,2723,TRINITY RIVER DR & NILE RIVER CT (SB),,,
38.617985,2724,-121.271912,2724,COLOMA RD & TRINITY RIVER DR (WB),,,
38.616978,2726,-121.27922,2726,COLOMA RD & TRUCKEE RIVER DR (WB),,,
38.616643,2727,-121.281512,2727,COLOMA RD & BENITA DR (WB),,,
38.615345,2728,-121.284851,2728,COLOMA RD & EL MANTO DR (WB),,,
38.613434,2729,-121.288849,2729,COLOMA RD & BENITA DR 1 (WB),,,
38.611332,2730,-121.291061,2730,COLOMA RD & MCGREGOR DR (WB),,,
38.607872,2731,-121.294594,2731,COLOMA RD & CORDOVA LN (WB),,,
38.606426,2732,-121.296074,2732,COLOMA RD & STUDARUS DR (WB),,,
38.602123,2733,-121.299851,2733,COLOMA RD & CHARDONNAY DR (WB),,,
38.599262,2734,-121.30249,2734,COLOMA RD & CHASE DR (WB),,,
38.595341,2735,-121.304878,2735,COLOMA RD & DOLECETTO DR (WB),,,
38.590599,2736,-121.303635,2736,COLOMA RD & FOLSOM BLVD (WB),,,
38.588875,2737,-121.303772,2737,FOLSOM BLVD & COLOMA RD (WB),,,
38.587887,2738,-121.305718,2738,FOLSOM BLVD & COLOMA RD (WB),,,
38.585541,2739,-121.310448,2739,FOLSOM BVD & PASEO DR (WB),,,
38.58387,2740,-121.31385,2740,FOLSOM BLVD & LA LOMA DR (WB),,,
38.581223,2741,-121.319237,2741,FOLSOM BLVD & W LA LOMA DR (WB),,,
38.579701,2742,-121.322319,2742,FOLSOM BLVD & ROD BEAUDRY DR (WB),,,
38.575935,2743,-121.329857,2743,FOLSOM BLVD & PASEO RIO WAY (WB),,,
38.572407,2744,-121.336899,2744,FOLSOM BLVD & BRADSHAW RD (WB),,,
38.569843,2745,-121.341988,2745,FOLSOM BLVD & BUTTERFIELD WAY (WB),,,
38.561348,2749,-121.359093,2749,FOLSOM BLVD & LA RIVIERA DR (WB),,,
38.559102,2750,-121.363507,2750,FOLSOM BLVD & NORCADE CIR (WB),,,
38.556492,2751,-121.368782,2751,FOLSOM BLVD & LA QUINTA DR (WB),,,
38.554951,2752,-121.371864,2752,FOLSOM BLVD & MANLOVE RD (WB),,,
38.553986,2755,-121.373192,2755,FOLSOM BLVD & MANLOVE RD (EB),,,
38.556702,2756,-121.367897,2756,FOLSOM BLVD & LA QUINTA DR (EB),,,
38.559422,2757,-121.362434,2757,FOLSOM BLVD & STARFIRE DR (EB),,,
38.572548,2760,-121.336228,2760,FOLSOM BLVD & BRADSHAW RD (EB),,,
38.576111,2761,-121.329125,2761,FOLSOM BLVD & HORN RD (EB),,,
38.579874,2762,-121.321439,2762,FOLSOM BLVD & ROD BEAUDRY DR (EB),,,
38.581482,2763,-121.318137,2763,FOLSOM BLVD & ROUTIER RD (EB),,,
38.584822,2764,-121.311322,2764,FOLSOM BLVD & LA LOMA DR (EB),,,
38.589916,2770,-121.303261,2770,COLOMA RD & FOLSOM BLVD (EB),,,
38.595336,2771,-121.304633,2771,COLOMA RD & DOLECETTO DR (EB),,,
38.599506,2772,-121.302002,2772,COLOMA RD & ANANDA LN (EB),,,
38.601965,2773,-121.299658,2773,COLOMA RD & CHARDONNAY DR (EB),,,
38.606852,2774,-121.295301,2774,COLOMA RD & ARAMON DR (EB),,,
38.608577,2775,-121.293561,2775,COLOMA RD & CORDOVA LN (EB),,,
38.611247,2776,-121.290852,2776,COLOMA RD & MCGREGOR DR (EB),,,
38.614095,2777,-121.287321,2777,COLOMA RD & BENITA DR (EB),,,
38.615538,2778,-121.283762,2778,COLOMA RD & EL MANTO DR (EB),,,
38.61638,2779,-121.281499,2779,COLOMA RD & HERMOSA (EB),,,
38.616908,2780,-121.278159,2780,COLOMA RD & BRIDLEWOOD DR (EB),,,
38.617336,2781,-121.274973,2781,COLOMA RD & VEHICLE DR (EB),,,
38.618321,2782,-121.270687,2782,TRINITY RIVER DR & COLOMA RD (NB),,,
38.621468,2783,-121.270453,2783,TRINITY RIVER DR & NILE RIVER CT (NB),,,
38.623158,2784,-121.268478,2784,TRINITY RIVER DR & KLAMATH RIVER DR (NB),,,
38.640514,2795,-121.271034,2795,FAIR OAKS BLVD & SUNRISE BLVD (EB),,,
38.642157,2796,-121.27004,2796,FAIR OAKS BLVD & CALIFORNIA AVE (NB),,,
38.645145,2797,-121.27185,2797,SUNRISE BLVD & WINDING WAY (NB),,,
38.653358,2798,-121.272158,2798,SUNRISE BLVD & SUNSET AVE (NB),,,
38.655903,2799,-121.272232,2799,SUNRISE BLVD & CAVALLI WAY (NB),,,
38.661319,2800,-121.27205,2800,SUNRISE BLVD & WILDRIDGE DR (NB),,,
38.664645,2801,-121.27196,2801,SUNRISE BLVD & MADISON AVE (NB),,,
38.667244,2802,-121.271965,2802,SUNRISE BLVD & ALTA SUNRISE DR (NB),,,
38.669979,2803,-121.271561,2803,SUNRISE BLVD & KINGSWOOD DR (NB),,,
38.672062,2804,-121.271389,2804,SUNRISE BLVD & MACY PL DR (NB),,,
38.674381,2805,-121.271423,2805,SUNRISE BLVD & ELEPHANT BAR (NB),,,
38.676802,2806,-121.271407,2806,SUNRISE BLVD & MACYS (NB),,,
38.678993,2807,-121.271431,2807,SUNRISE BLVD & GREENBACK LN (NB),,,
38.685491,2808,-121.27147,2808,SUNRISE BLVD & ARCADE LAKE LN (NB),,,
38.692658,2809,-121.271522,2809,SUNRISE BLVD & WOODMORE OAKS DR (NB),,,
38.695847,2810,-121.27158,2810,SUNRISE BLVD & SUNGARDEN DR (NB),,,
38.700684,2811,-121.271774,2811,SUNRISE BLVD & OAK AVE (NB),,,
38.704868,2812,-121.271774,2812,SUNRISE BLVD & OLD AUBURN RD (NB),,,
38.707958,2813,-121.271713,2813,SUNRISE BLVD & ANTELOPE RD (NB),,,
38.713618,2814,-121.271625,2814,SUNRISE BLVD & STANFORD AVE (NB),,,
38.564087,2816,-121.318352,2816,LINC VILL DR & NEBULA WAY (WB),,,
38.564076,2817,-121.32106,2817,LINC VILL DR & ATOMIC CT (WB),,,
38.563965,2818,-121.323654,2818,LINC VILL DR & EXPLORER DR (WB),,,
38.562843,2819,-121.32534,2819,LINC VILL DR & ARIES WAY (WB),,,
38.561829,2820,-121.328026,2820,LINC VILL DR & VIRGO ST (WB),,,
38.561867,2821,-121.331024,2821,LINC VILL DR & VIKING DR (WB),,,
38.562195,2822,-121.33371,2822,LINC VILL DR & EXPLORER DR (WB),,,
38.560211,2824,-121.33625,2824,BRADSHAW RD & COUNTRY ROADS DR (SB),,,
38.556507,2825,-121.33635,2825,BRADSHAW RD & OLD PLACER RD (SB),,,
38.55484,2826,-121.337296,2826,GOETHE RD & BRADSHAW RD (WB),,,
38.554649,2846,-121.337639,2846,GOETHE RD & BRANCH CTR RD (EB),,,
38.547043,2873,-121.371559,2873,KIEFER BLVD & S WATT AVE (EB),,,
38.547073,2874,-121.368569,2874,KIEFER BLVD & BRYDON WAY (EB),,,
38.547142,2884,-121.361664,2884,KIEFER BLVD & SOUTHPORT DR (EB),,,
38.547199,2885,-121.356552,2885,KIEFER BLVD & TALLYHO DR (EB),,,
38.547295,2886,-121.353172,2886,KIEFER BLVD & HUNTSMAN DR (EB),,,
38.54641,2887,-121.347794,2887,KIEFER BLVD & TALLYHO DR (EB),,,
38.545132,2888,-121.342682,2888,KIEFER BLVD & MAYHEW RD (EB),,,
38.545774,2889,-121.33812,2889,BRANCH CTR & AGRICULTURE LN (NB),,,
38.549441,2891,-121.337664,2891,BRANCH CTR & PRESERVATION WAY (NB),,,
38.551601,2892,-121.337691,2892,BRANCH CTR & PRESERVATION WAY (NB),,,
38.678017,2919,-121.262375,2919,FAIR OAKS BLVD & GREENBACK LN (SB),,,
38.675404,2920,-121.262291,2920,FAIR OAKS BLVD & SUNBONNET DR (SB),,,
38.671894,2921,-121.262268,2921,FAIR OAKS BLVD & SUNRISE E WAY (SB),,,
38.66787,2922,-121.262344,2922,FAIR OAKS BLVD & TREECREST AVE (SB),,,
38.642445,2934,-121.270187,2934,FAIR OAKS BLVD & CALIFORNIA AVE (SB),,,
38.640713,2935,-121.270599,2935,FAIR OAKS BLVD & SUNRISE BLVD (SB),,,
38.622791,2936,-121.26696,2936,SUNRISE BLVD & TRINTY RIVER DR (SB),,,
38.617836,2937,-121.26854,2937,SUNRISE BLVD & COLOMA RD (SB),,,
38.562338,2954,-121.359044,2954,LA RIVIERA DR & FOLSOM BLVD (WB),,,
38.56424,2955,-121.362354,2955,LA RIVIERA DR & LINDA RIO DR (WB),,,
38.564556,2956,-121.365242,2956,LA RIVIERA DR & STANSBERRY WAY (WB),,,
38.564198,2957,-121.367958,2957,LA RIVIERA DR & ROGUE RIVER DR (WB),,,
38.563622,2958,-121.371422,2958,LA RIVIERA DR & WATERTON WAY (WB),,,
38.563595,2959,-121.374573,2959,LA RIVIERA DR & LANIER WAY (WB),,,
38.564453,2960,-121.377403,2960,LA RIVIERA DR & WOODMAN WAY (WB),,,
38.564083,2961,-121.380005,2961,LA RIVIERA DR & WATT AVE (WB),,,
38.575032,2962,-121.382846,2962,WATT AVE & FAIR OAKS BLVD (NB),,,
38.581595,2963,-121.382816,2963,WATT AVE & NORTHROP AVE (NB),,,
38.58543,2964,-121.382814,2964,WATT AVE & BODEGA CT (NB),,,
38.588698,2965,-121.382903,2965,WATT AVE & SAN YSIDRO WAY (NB),,,
38.592699,2966,-121.382902,2966,WATT AVE & EL RICON WAY (NB),,,
38.563122,2970,-121.386086,2970,LA RIVIERA DR & WATERGLEN CIR (SB),,,
38.561356,2971,-121.387596,2971,LA RIVIERA DR & MOORBROOK WAY (WB),,,
38.560158,2972,-121.390122,2972,LA RIVIERA DR & WATERGLEN CIR (WB),,,
38.560261,2973,-121.395073,2973,LA RIVIERA DR & OCCIDENTAL DR (WB),,,
38.559349,2974,-121.397781,2974,LA RIVIERA DR & OCCIDENTAL DR (WB),,,
38.558609,2975,-121.400528,2975,LA RIVIERA DR & MEDITERRANEAN WAY (WB),,,
38.558437,2976,-121.403114,2976,LA RIVIERA DR & LIDO CIR (WB),,,
38.558193,2977,-121.405136,2977,LA RIVIERA DR & LIDO CIR (WB),,,
38.557579,2978,-121.410225,2978,LA RIVIERA DR & HOWE AVE (WB),,,
38.555523,2979,-121.410774,2979,LA RIVIERA DR & COLLEGE TOWN DR (WB),,,
38.554287,2980,-121.413414,2980,COLLEGE TOWNE DR & HORNET DR (WB),,,
38.55407,2989,-121.41272,2989,COLLEGE TOWNE DR & HORNET DR (EB),,,
38.555924,2990,-121.410561,2990,LA RIVIERA DR & COLLEGE TOWN DR (EB),,,
38.557907,2991,-121.405579,2991,LA RIVIERA DR & LIDO CIR (EB),,,
38.558346,2992,-121.402573,2992,LA RIVIERA DR & LIDO CIR (EB),,,
38.558518,2993,-121.400131,2993,LA RIVIERA DR & MEDITERRANEAN WAY (EB),,,
38.559445,2994,-121.39727,2994,LA RIVIERA DR & OCCIDENTAL DR (EB),,,
38.560143,2995,-121.394768,2995,LA RIVIERA DR & OCCIDENTAL DR (EB),,,
38.560032,2996,-121.39019,2996,LA RIVIERA DR & WATERGLEN CIR (EB),,,
38.563934,3000,-121.380028,3000,LA RIVIERA DR & WATT AVE (EB),,,
38.564335,3001,-121.376839,3001,LA RIVIERA DR & WOODMAN WAY (EB),,,
38.563269,3002,-121.37345,3002,LA RIVIERA DR & LANIER WAY (EB),,,
38.563603,3003,-121.37073,3003,LA RIVIERA DR & WATERTON WAY (EB),,,
38.564232,3004,-121.366991,3004,LA RIVIERA DR & ROGUE RIVER DR (EB),,,
38.564251,3005,-121.362999,3005,LA RIVIERA DR & PAYETTE DR (EB),,,
38.562912,3006,-121.360024,3006,LA RIVIERA DR & TUOLUMNE DR (EB),,,
38.562035,3007,-121.359024,3007,LA RIVIERA DR & FOLSOM BLVD (EB),,,
38.618946,3026,-121.26786,3026,SUNRISE BLVD & COLOMA RD (NB),,,
38.623671,3027,-121.266287,3027,SUNRISE BLVD & GOLD EXPRESS DR (NB),,,
38.62861,3028,-121.266132,3028,SUNRISE BLVD & GOLD COUNTRY BLVD (NB),,,
38.664593,3040,-121.2621,3040,FAIR OAKS BLVD & MADISON AVE (NB),,,
38.672905,3042,-121.262093,3042,FAIR OAKS BLVD & SUNRISE E WAY (NB),,,
38.675118,3043,-121.262116,3043,FAIR OAKS BLVD & SUNBONNET DR (NB),,,
38.656242,3049,-121.38306,3049,WATT AVE & ROSEVILLE RD (SB),,,
38.712897,3052,-121.392238,3052,WATT AVE & ELVERTA RD (SB),,,
38.709629,3054,-121.387528,3054,WATT AVE & NAVAHO DR (SB),,,
38.707146,3055,-121.383514,3055,WATT AVE & DAVIDSON DR (SB),,,
38.703655,3056,-121.38311,3056,WATT AVE & U ST (SB),,,
38.701321,3057,-121.383049,3057,WATT AVE & LARCHMONT DR (SB),,,
38.69754,3058,-121.383103,3058,WATT AVE & Q ST (SB),,,
38.69418,3059,-121.383072,3059,WATT AVE & TURNER DR (SB),,,
38.689858,3060,-121.38311,3060,WATT AVE & ELKHORN BLVD (SB),,,
38.68673,3061,-121.38311,3061,WATT AVE & VAN OWEN ST (SB),,,
38.682915,3062,-121.383095,3062,WATT AVE & I ST (SB),,,
38.678684,3063,-121.38311,3063,WATT AVE & DON JULIO BLVD (SB),,,
38.675369,3064,-121.383049,3064,WATT AVE & FREEDOM PARK DR (SB),,,
38.673328,3065,-121.383072,3065,WATT AVE & KARL DR (SB),,,
38.671074,3066,-121.383064,3066,WATT AVE & N HAVEN DR (SB),,,
38.66798,3067,-121.383064,3067,WATT AVE & A ST (SB),,,
38.664919,3068,-121.383106,3068,WATT AVE & WINGS WAY (SB),,,
38.661499,3069,-121.383064,3069,WATT AVE & POPLAR BLVD (SB),,,
38.653572,3070,-121.383186,3070,WATT AVE & MYRTLE AVE (SB),,,
38.651138,3071,-121.383125,3071,WATT AVE & WINONA WAY (SB),,,
38.648933,3072,-121.383125,3072,WATT AVE & ORANGE GROVE AVE (SB),,,
38.642952,3073,-121.383453,3073,WATT AVE & LONGVIEW DR (SB),,,
38.636753,3074,-121.383148,3074,WATT AVE & AUBURN BLVD (SB),,,
38.634358,3075,-121.383148,3075,WATT AVE & EDISON AVE (SB),,,
38.62809,3076,-121.383103,3076,WATT AVE & WHITNEY AVE (SB),,,
38.625393,3077,-121.383148,3077,WATT AVE & POPE AVE (SB),,,
38.617489,3078,-121.383194,3078,WATT AVE & MARCONI AVE (SB),,,
38.613808,3079,-121.383156,3079,WATT AVE & CHENU AVE (SB),,,
38.609989,3080,-121.383186,3080,WATT AVE & EL CAMINO AVE (SB),,,
38.595257,3081,-121.383232,3081,WATT AVE & ARDEN WAY (SB),,,
38.593449,3082,-121.383217,3082,WATT AVE & BARRINGTON RD (SB),,,
38.591145,3083,-121.383209,3083,WATT AVE & HYDE WAY (SB),,,
38.588341,3084,-121.383225,3084,WATT AVE & HURLEY WAY (SB),,,
38.585156,3085,-121.383148,3085,WATT AVE & WINDSOR DR (SB),,,
38.580883,3086,-121.383171,3086,WATT AVE & NORTHROP AVE (SB),,,
38.574844,3087,-121.383255,3087,WATT AVE & COSMOS AVE (SB),,,
38.607967,3089,-121.382817,3089,WATT AVE & BUTANO DR (NB),,,
38.610844,3090,-121.382874,3090,WATT AVE & EL CAMINO AVE (NB),,,
38.614449,3091,-121.382853,3091,WATT AVE & KINGS WAY (NB),,,
38.618332,3092,-121.382889,3092,WATT AVE & MARCONI AVE (NB),,,
38.62286,3093,-121.382881,3093,WATT AVE & LYNNE WAY 1 (NB),,,
38.625256,3094,-121.382889,3094,WATT AVE & LYNNE WAY 2 (NB),,,
38.629063,3095,-121.382874,3095,WATT AVE & WHITNEY AVE (NB),,,
38.634594,3096,-121.382843,3096,WATT AVE & EDISON AVE (NB),,,
38.638669,3097,-121.382892,3097,WATT AVE & BUSINESS 80 (NB),,,
38.642773,3098,-121.383141,3098,WATT AVE & LONGVIEW DR (NB),,,
38.649723,3099,-121.382843,3099,WATT AVE & MARGARET WAY (NB),,,
38.652332,3100,-121.382828,3100,WATT AVE & WINONA WAY (NB),,,
38.654385,3101,-121.38282,3101,WATT AVE & MYRTLE AVE (NB),,,
38.656197,3102,-121.382729,3102,WATT AVE & ROSEVILLE RD (NB),,,
38.661156,3103,-121.382645,3103,WATT AVE & POPLAR BLVD (NB),,,
38.663426,3104,-121.382691,3104,WATT AVE & AIR BASE DR (NB),,,
38.666977,3106,-121.382767,3106,WATT AVE & MCCLELLAN DR (NB),,,
38.668858,3107,-121.382744,3107,WATT AVE & A ST (NB),,,
38.671379,3108,-121.382759,3108,WATT AVE & N HAVEN DR (NB),,,
38.674294,3109,-121.382759,3109,WATT AVE & KARL DR (NB),,,
38.67704,3110,-121.382744,3110,WATT AVE & FREEDOM PARK DR (NB),,,
38.683498,3112,-121.382713,3112,WATT AVE & BOLIVAR AVE (NB),,,
38.685871,3113,-121.382736,3113,WATT AVE & CHANNING DR (NB),,,
38.691349,3115,-121.382652,3115,WATT AVE & ELKHORN BLVD (NB),,,
38.693802,3116,-121.38266,3116,WATT AVE & PLYMOUTH DR (NB),,,
38.695778,3117,-121.382675,3117,WATT AVE & TURNER DR (NB),,,
38.698891,3118,-121.382652,3118,WATT AVE & QUINN WAY (NB),,,
38.700607,3119,-121.382652,3119,WATT AVE & QUINN WAY (NB),,,
38.704727,3121,-121.382698,3121,WATT AVE & ANTELOPE RD (NB),,,
38.707649,3122,-121.383522,3122,WATT AVE & BLACKFOOT WAY (NB),,,
38.709923,3123,-121.38794,3123,WATT AVE & NAVAHO DR (NB),,,
38.71225,3124,-121.391617,3124,WATT AVE & TIMBERLANE PL (NB),,,
38.715071,3125,-121.392102,3125,WATT AVE & ELVERTA RD (NB),,,
38.497231,3130,-121.437927,3130,65TH ST & FLORIN RD (NB),,,
38.500144,3131,-121.434506,3131,65TH ST & SKY PKWY (EB),,,
38.500736,3132,-121.430687,3132,65TH ST & STOCKTON BLVD (EB),,,
38.510864,3134,-121.42733,3134,65TH ST & ELDERCREEK RD (NB),,,
38.516243,3135,-121.427422,3135,65TH ST & LEMON HILL AVE (NB),,,
38.520065,3136,-121.427452,3136,65TH ST & MCMAHON DR (NB),,,
38.525379,3137,-121.427483,3137,65TH ST & FRUITRIDGE RD (NB),,,
38.532589,3138,-121.427406,3138,65TH ST & 21ST AVE (NB),,,
38.536396,3139,-121.427261,3139,65TH ST & 18TH AVE (NB),,,
38.540188,3140,-121.427734,3140,65TH ST & 14TH AVE (NB),,,
38.542271,3141,-121.427795,3141,65TH ST & 11TH AVE (NB),,,
38.544102,3142,-121.427811,3142,65TH ST & SAN JOAQUIN ST (NB),,,
38.547318,3143,-121.427711,3143,65TH ST & BROADWAY (NB),,,
38.549161,3144,-121.427723,3144,65TH ST & 4TH AVE (NB),,,
38.608407,3146,-121.502424,3146,NATOMAS PK & GARDEN HWY (NB),,,
38.610352,3148,-121.506401,3148,NATOMAS PK & NATOMAS PK (WB),,,
38.613602,3149,-121.504997,3149,AZEVEDO DR & W EL CAMINO AVE (NB),,,
38.616657,3150,-121.506554,3150,AZEVEDO DR & BANNON CREEK DR (NB),,,
38.61842,3151,-121.509369,3151,AZEVEDO DR & DELGADO WAY (NB),,,
38.620743,3152,-121.510315,3152,AZEVEDO DR & PEBBLEWOOD DR (NB),,,
38.623001,3153,-121.510468,3153,AZEVEDO DR & BORONA WAY (NB),,,
38.625233,3154,-121.509705,3154,AZEVEDO DR & MOONTREE DR (NB),,,
38.627323,3155,-121.508057,3155,SAN JUAN RD & AZEVEDO DR (EB),,,
38.627354,3156,-121.505127,3156,SAN JUAN RD & BANDON WAY (EB),,,
38.627373,3157,-121.501427,3157,SAN JUAN RD & MIRAMONTE DR (EB),,,
38.62738,3158,-121.497414,3158,SAN JUAN RD & TRUXEL RD (EB),,,
38.627419,3159,-121.492699,3159,SAN JUAN RD & ROCKHAMTON DR (EB),,,
38.627422,3160,-121.490234,3160,SAN JUAN RD & RANCHO SILVA DR (EB),,,
38.627445,3161,-121.486763,3161,SAN JUAN RD & BRIDGEFORD DR (EB),,,
38.629086,3163,-121.480324,3163,SAN JUAN RD & BINGHAMTON DR (EB),,,
38.62957,3164,-121.477463,3164,SAN JUAN RD & NORTHGATE BLVD (EB),,,
38.630821,3165,-121.475494,3165,NORTHGATE BLVD & SAN JUAN RD (NB),,,
38.633885,3166,-121.475479,3166,NORTHGATE BLVD & PATIO AVE (NB),,,
38.636032,3167,-121.475769,3167,NORTHGATE BLVD & ROSIN CT (NB),,,
38.644615,3168,-121.475922,3168,NORTHGATE BLVD & TANDY DR (NB),,,
38.617836,3179,-121.415474,3179,HOWE AVE & MARCONI AVE (SB),,,
38.613567,3180,-121.415459,3180,HOWE AVE & RASSY WAY (SB),,,
38.610317,3181,-121.415512,3181,HOWE AVE & EL CAMINO AVE (SB),,,
38.608139,3182,-121.415474,3182,HOWE AVE & DELMA WAY (SB),,,
38.60286,3183,-121.41552,3183,HOWE AVE & COTTAGE WAY (SB),,,
38.599606,3184,-121.415497,3184,HOWE AVE & WYDA WAY (SB),,,
38.595551,3185,-121.415573,3185,HOWE AVE & ARDEN WAY (SB),,,
38.59119,3187,-121.415535,3187,HOWE AVE & HALLMARK DR (SB),,,
38.588177,3188,-121.415543,3188,HOWE AVE & HURLEY WAY (SB),,,
38.58532,3189,-121.415543,3189,HOWE AVE & VILLAGE (SB),,,
38.581284,3190,-121.415497,3190,HOWE AVE & NORTHROP AVE (SB),,,
38.577854,3191,-121.415527,3191,HOWE AVE & SIERRA BLVD (SB),,,
38.574837,3192,-121.415611,3192,HOWE AVE & FAIR OAKS BLVD (SB),,,
38.570885,3193,-121.419075,3193,FAIR OAKS BLVD & CADILLAC (WB),,,
38.574803,3197,-121.506336,3197,3RD ST & Q ST (SB),,,
38.571674,3198,-121.507713,3198,3RD ST & T ST (SB),,,
38.569771,3199,-121.508545,3199,3RD ST & V ST (SB),,,
38.541367,3209,-121.473198,3209,12TH AVE & FREEWAY (WB),,,
38.541279,3210,-121.475411,3210,12TH AVE & FRANKLIN BLVD (WB),,,
38.538717,3214,-121.490126,3214,SUTTERVILLE RD & 21ST ST (WB),,,
38.540398,3217,-121.480614,3217,SUTTERVILLE RD & 24TH ST (WB),,,
38.474335,3220,-121.428711,3220,MACK RD & LA MANCHA WAY (WB),,,
38.474377,3222,-121.437584,3222,MACK RD & CENTER PKWY (WB),,,
38.474388,3223,-121.441391,3223,MACK RD & SUMMERSDALE DR (WB),,,
38.474396,3224,-121.444122,3224,MACK RD & TANGERINE AVE (WB),,,
38.474472,3225,-121.449219,3225,MACK RD & FRANKLIN BLVD (WB),,,
38.474506,3226,-121.455055,3226,MACK RD & DEER CREEK DR (WB),,,
38.478786,3228,-121.461257,3228,MACK RD & BROOKE MEADOW DR (WB),,,
38.646336,3237,-121.475624,3237,NORTHGATE BLVD & N MARKET BLVD (SB),,,
38.636231,3238,-121.476189,3238,NORTHGATE BLVD & ROSIN CT (SB),,,
38.632912,3239,-121.475685,3239,NORTHGATE BLVD & PATIO AVE (SB),,,
38.62978,3240,-121.476318,3240,SAN JUAN RD & NORTHGATE BLVD (WB),,,
38.629749,3241,-121.478493,3241,SAN JUAN RD & BINGHAMTON DR (WB),,,
38.629334,3242,-121.480232,3242,SAN JUAN RD & BINGHAMTON DR (WB),,,
38.627606,3243,-121.485519,3243,SAN JUAN RD & ZENOBIA WAY (WB),,,
38.62759,3244,-121.487663,3244,SAN JUAN RD & BRIDGEFORD DR (WB),,,
38.627564,3246,-121.493126,3246,SAN JUAN RD & PONY EXPRESS DR (WB),,,
38.627575,3247,-121.498421,3247,SAN JUAN RD & TRUXEL RD (WB),,,
38.627529,3248,-121.500923,3248,SAN JUAN RD & SODA WAY (WB),,,
38.627514,3249,-121.506355,3249,SAN JUAN RD & AZEVEDO DR (WB),,,
38.627094,3250,-121.508652,3250,AZEVEDO DR & SAN JUAN RD (SB),,,
38.625721,3251,-121.509483,3251,AZEVEDO DR & OSUNA WAY (SB),,,
38.622852,3252,-121.510689,3252,AZEVEDO DR & BORONA WAY (SB),,,
38.620255,3253,-121.510391,3253,AZEVEDO DR & PEBBLEWOOD DR (SB),,,
38.617657,3254,-121.50898,3254,AZEVEDO DR & AQUINO DR (SB),,,
38.615963,3255,-121.505974,3255,AZEVEDO DR & BANNON CREEK DR (SB),,,
38.612446,3256,-121.50531,3256,NATOMAS PK & W EL CAMINO AVE (SB),,,
38.610268,3257,-121.50663,3257,NATOMAS PK & NATOMAS PK (EB),,,
38.608524,3259,-121.502739,3259,NATOMAS PK & GARDEN HWY (SB),,,
38.663853,3273,-121.271355,3273,MADISON AVE & SUNRISE BLVD (EB),,,
38.663804,3282,-121.224663,3282,MADISON AVE & HAZEL AVE (EB),,,
38.663851,3283,-121.219579,3283,MADISON AVE & FLYWAY DR (EB),,,
38.666817,3285,-121.211297,3285,MADISON AVE & BLUE OAK DR (EB),,,
38.669298,3286,-121.208312,3286,MADISON AVE & PERSHING AVE (EB),,,
38.672982,3287,-121.202347,3287,MAIN AVE & MADISON AVE (NB),,,
38.67868,3293,-121.22661,3293,GREENBACK LN & HAZEL AVE (WB),,,
38.678761,3294,-121.234207,3294,GREENBACK LN & HICKORY AVE (WB),,,
38.678787,3295,-121.240219,3295,GREENBACK LN & ALMOND AVE (WB),,,
38.678831,3296,-121.244964,3296,GREENBACK LN & KENNETH AVE (WB),,,
38.678818,3297,-121.250393,3297,GREENBACK LN & TRAJAN DR (WB),,,
38.678875,3298,-121.253388,3298,GREENBACK LN & HOFFMAN LN (WB),,,
38.678757,3299,-121.260827,3299,GREENBACK LN & SUNRISE VISTA DR (WB),,,
38.678585,3301,-121.268372,3301,GREENBACK LN & ARCADIA DR (WB),,,
38.672058,3312,-121.202942,3312,MADISON AVE & MAIN AVE (WB),,,
38.669563,3313,-121.208534,3313,MADISON AVE & PERSHING AVE (WB),,,
38.666073,3314,-121.2127,3314,MADISON AVE & BLUE OAK DR (WB),,,
38.664802,3315,-121.214283,3315,MADISON AVE & BEAUREGARD WAY (WB),,,
38.66408,3317,-121.220689,3317,MADISON AVE & FLYWAY DR (WB),,,
38.721681,3327,-121.290597,3327,AUBURN BLVD & WHYTE AVE (SB),,,
38.718363,3328,-121.289819,3328,TWIN OAKS AVE & AUBURN BLVD (EB),,,
38.718442,3329,-121.2856,3329,TWIN OAKS AVE & HOLLY DR (EB),,,
38.718449,3330,-121.281617,3330,TWIN OAKS AVE & MARIPOSA AVE (EB),,,
38.718516,3331,-121.275295,3331,TWIN OAKS AVE & FAIR WAY (EB),,,
38.71899,3332,-121.290657,3332,AUBURN BLVD & AUBURN OAKS CT (SB),,,
38.71415,3333,-121.290619,3333,AUBURN BLVD & ROLLINWOOD WAY (SB),,,
38.710842,3334,-121.290581,3334,AUBURN BLVD & GRAND OAKS BLVD (SB),,,
38.707722,3335,-121.290611,3335,AUBURN BLVD & WATSON WAY (SB),,,
38.704647,3336,-121.290505,3336,AUBURN BLVD & SYCAMORE DR (SB),,,
38.701111,3337,-121.290489,3337,AUBURN BLVD & KANAI AVE (SB),,,
38.69804,3338,-121.290451,3338,AUBURN BLVD & MAPLE AVE (SB),,,
38.696323,3339,-121.290474,3339,AUBURN BLVD & OLD AUBURN RD (SB),,,
38.69363,3340,-121.293541,3340,AUBURN BLVD & CARRIAGE DR (WB),,,
38.692452,3341,-121.297066,3341,AUBURN BLVD & RAINTREE DR (WB),,,
38.690834,3342,-121.301857,3342,AUBURN BLVD & SAN TOMAS DR (WB),,,
38.689865,3343,-121.304489,3343,AUBURN BLVD & COBALT WAY (WB),,,
38.678669,3348,-121.321594,3348,AUBURN BLVD & GREENBACK LN (WB),,,
38.675526,3349,-121.325325,3349,AUBURN BLVD & COUNTRY LN (WB),,,
38.672665,3350,-121.329033,3350,AUBURN BLVD & MANZANITA AVE (WB),,,
38.670303,3351,-121.332543,3351,AUBURN BLVD & ROSEBUD LN (WB),,,
38.668209,3352,-121.337425,3352,AUBURN BLVD & GARFIELD AVE (WB),,,
38.666103,3353,-121.340927,3353,AUBURN BLVD & HEMLOCK ST (WB),,,
38.663689,3354,-121.343796,3354,AUBURN BLVD & KOHLER RD (WB),,,
38.660309,3355,-121.347756,3355,AUBURN BLVD & MADISON AVE (WB),,,
38.656868,3356,-121.350632,3356,COLLEGE OAK DR & AUBURN BLVD (SB),,,
38.654614,3357,-121.350655,3357,COLLEGE OAK DR & MYRTLE AVE (SB),,,
38.687206,3371,-121.308185,3371,AUBURN BLVD & VAN MAREN LN (EB),,,
38.688561,3372,-121.306358,3372,AUBURN BLVD & CROSSWOODS PKWY (EB),,,
38.690181,3373,-121.303069,3373,AUBURN BLVD & SAN TOMAS DR (EB),,,
38.692289,3374,-121.296927,3374,AUBURN BLVD & RAINTREE DR (EB),,,
38.693421,3375,-121.293499,3375,AUBURN BLVD & CHIVALRY WAY (EB),,,
38.69559,3376,-121.290194,3376,AUBURN BLVD & OLD AUBURN RD (NB),,,
38.697225,3377,-121.290186,3377,AUBURN BLVD & HACKNEY WAY (SB),,,
38.69869,3378,-121.290154,3378,AUBURN BLVD & MAPLE AVE (NB),,,
38.70274,3379,-121.290306,3379,AUBURN BLVD & COOK AVE (NB),,,
38.705029,3380,-121.290352,3380,AUBURN BLVD & SYCAMORE DR (NB),,,
38.707935,3381,-121.290283,3381,AUBURN BLVD & WATSON WAY (NB),,,
38.710877,3382,-121.290329,3382,AUBURN BLVD & CEDAR DR (NB),,,
38.713177,3383,-121.290337,3383,AUBURN BLVD & BAIRD WAY (NB),,,
38.718582,3385,-121.272232,3385,TWIN OAKS AVE & SUNRISE BLVD (WB),,,
38.718563,3386,-121.275642,3386,TWIN OAKS AVE & FAIR WAY (WB),,,
38.718533,3387,-121.281067,3387,TWIN OAKS AVE & MARIPOSA AVE (WB),,,
38.718472,3388,-121.285729,3388,TWIN OAKS AVE & HOLLY DR (WB),,,
38.719086,3389,-121.290382,3389,AUBURN BLVD & TWIN OAKS AVE (NB),,,
38.689228,3451,-121.225609,3451,HAZEL AVE & PITMAN LANE LN (SB),,,
38.699963,3452,-121.225334,3452,HAZEL AVE & OAK AVE (SB),,,
38.695725,3453,-121.22554,3453,HAZEL AVE & ALMOND VIEW CT (SB),,,
38.685619,3454,-121.225647,3454,HAZEL AVE & CENTRAL AVE (SB),,,
38.681988,3455,-121.225746,3455,HAZEL AVE & GREENHALGH LN (SB),,,
38.678169,3456,-121.225876,3456,HAZEL AVE & GREENBACK LN (SB),,,
38.670329,3457,-121.225848,3457,HAZEL AVE & PERSHING AVE (SB),,,
38.66325,3458,-121.225922,3458,HAZEL AVE & MADISON AVE (SB),,,
38.659996,3459,-121.225807,3459,HAZEL AVE & PHOENIX AVE (SB),,,
38.652836,3460,-121.225716,3460,HAZEL AVE & SUNSET AVE (SB),,,
38.650452,3461,-121.225759,3461,HAZEL AVE & N WIND WAY (SB),,,
38.645602,3462,-121.225659,3462,HAZEL AVE & WINDING WY (SB),,,
38.639999,3463,-121.225571,3463,HAZEL AVE & CURRAGH DOWNS DR (SB),,,
38.689228,3464,-121.225372,3464,HAZEL AVE & CENTRAL AVE (NB),,,
38.671341,3465,-121.225639,3465,HAZEL AVE & AKSARBEN DR (NB),,,
38.640844,3468,-121.225269,3468,HAZEL AVE & VISAGE CIR (NB),,,
38.643599,3469,-121.225311,3469,HAZEL AVE & DEGAS CT (NB),,,
38.646402,3470,-121.225306,3470,HAZEL AVE & WINDING WY (NB),,,
38.64889,3471,-121.225367,3471,HAZEL AVE & LA SERENA DR (NB),,,
38.653576,3472,-121.225502,3472,HAZEL AVE & SUNSET AVE (NB),,,
38.658543,3473,-121.225609,3473,HAZEL AVE & BEDFORD AVE (NB),,,
38.661141,3474,-121.225647,3474,HAZEL AVE & PHOENIX AVE (NB),,,
38.664295,3475,-121.225632,3475,HAZEL AVE & MADISON AVE (NB),,,
38.668003,3476,-121.225655,3476,HAZEL AVE & LEEDY LN (NB),,,
38.673977,3477,-121.225624,3477,HAZEL AVE & HAZEL HILL CT. (NB),,,
38.679661,3478,-121.225578,3478,HAZEL AVE & GREENBACK LN (NB),,,
38.68182,3479,-121.225548,3479,HAZEL AVE & CALVERT AVE (NB),,,
38.685902,3480,-121.225433,3480,HAZEL AVE & CENTRAL AVE (NB),,,
38.693066,3481,-121.22583,3481,ELM AVE & HAZEL AVE (WB),,,
38.693062,3482,-121.229858,3482,ELM AVE & BEECH AVE (WB),,,
38.697508,3483,-121.229922,3483,BEECH AVE & MAVIS AVE (NB),,,
38.662998,3503,-121.382401,3503,AIRBASE DR & WATT AVE (EB),,,
38.661091,3504,-121.373406,3504,MADISON AVE & JACKSON ST (EB),,,
38.661026,3505,-121.367783,3505,MADISON AVE & HARRISON ST (EB),,,
38.661285,3508,-121.364937,3508,MADISON AVE & HILLSDALE BLVD (WB),,,
38.661339,3509,-121.369286,3509,MADISON AVE & HARRISON ST (WB),,,
38.661427,3510,-121.374138,3510,MADISON AVE & JACKSON ST (WB),,,
38.661625,3520,-121.364288,3520,HILLSDALE BLVD & MADISON AVE (NB),,,
38.663571,3521,-121.364261,3521,HILLSDALE BLVD & FRIZELL AVE (NB),,,
38.665527,3522,-121.363765,3522,HILLSDALE BLVD & CHAPEL WAY (NB),,,
38.667068,3523,-121.362831,3523,HILLSDALE BLVD & STOCKBRIDGE AVE (NB),,,
38.668781,3524,-121.361775,3524,HILLSDALE BLVD & PALM AVE (NB),,,
38.671405,3526,-121.358089,3526,HILLSDALE BLVD & WALERGA RD (EB),,,
38.672613,3527,-121.356053,3527,HILLSDALE BLVD & WALERGA RD (NB),,,
38.678602,3530,-121.35107,3530,HILLSDALE BLVD & ROBERT FROST WAY (NB),,,
38.681297,3531,-121.348945,3531,HILLSDALE BLVD & MC CLOUD DR (NB),,,
38.683071,3532,-121.348109,3532,HILLSDALE BLVD & TACOMIC DR (NB),,,
38.686577,3533,-121.347839,3533,ANDREA BLVD & HILLSDALE BLVD (EB),,,
38.68829,3534,-121.343178,3534,ANDREA BLVD & ELKHORN BLVD (EB),,,
38.690186,3535,-121.341156,3535,ANDREA BLVD & LEATHERWOOD WAY (EB),,,
38.692337,3536,-121.338883,3536,ANDREA BLVD & ROBLE WAY (EB),,,
38.692795,3537,-121.336861,3537,ANDREA BLVD & DIABLO DR (EB),,,
38.687351,3540,-121.344437,3540,ANDREA BLVD & ELKHORN BLVD (WB),,,
38.686684,3541,-121.347611,3541,ANDREA BLVD & HILLSDALE BLVD (WB),,,
38.685532,3542,-121.348343,3542,HILLSDALE BLVD & ANDREA BLVD (SB),,,
38.682945,3543,-121.348373,3543,HILLSDALE BLVD & TACOMIC DR (SB),,,
38.680897,3544,-121.349777,3544,HILLSDALE BLVD & MC CLOUD DR (SB),,,
38.678478,3545,-121.351379,3545,HILLSDALE BLVD & ROBERT FROST WAY (SB),,,
38.671593,3548,-121.358307,3548,HILLSDALE BLVD & WALERGA RD (SB),,,
38.670216,3549,-121.360611,3549,HILLSDALE BLVD & GREENHOLME DR (SB),,,
38.668072,3550,-121.362564,3550,HILLSDALE BLVD & PALM AVE (SB),,,
38.66301,3552,-121.364517,3552,HILLSDALE BLVD & FRIZELL AVE (SB),,,
38.69286,3555,-121.337067,3555,ANDREA BLVD & DIABLO DR (WB),,,
38.692257,3556,-121.339127,3556,ANDREA BLVD & ROBLE WAY (WB),,,
38.690067,3557,-121.341492,3557,ANDREA BLVD & LEATHERWOOD WAY (WB),,,
38.668167,3589,-121.309453,3589,COYLE AVE & DEWEY DR (WB),,,
38.66814,3590,-121.31162,3590,COYLE AVE & SOUTHBROOK WAY (WB),,,
38.668103,3591,-121.31607,3591,COYLE AVE & PARK OAKS DR (WB),,,
38.668077,3592,-121.319288,3592,COYLE AVE & HESPER WAY (WB),,,
38.668043,3593,-121.323103,3593,COYLE AVE & WOODLEIGH DR (WB),,,
38.668043,3594,-121.326302,3594,COYLE AVE & CASA ALEGRE (WB),,,
38.666513,3595,-121.327435,3595,MANZANITA AVE & NONNIE AVE (SB),,,
38.663217,3596,-121.327493,3596,MANZANITA AVE & PEPPERMILL CT (SB),,,
38.660134,3597,-121.327694,3597,MANZANITA AVE & MADISON AVE (SB),,,
38.655775,3598,-121.327724,3598,MANZANITA AVE & MULDROW RD (SB),,,
38.653029,3599,-121.327783,3599,MANZANITA AVE & VERDE CRUZ WAY (SB),,,
38.648777,3600,-121.327893,3600,MANZANITA AVE & WINDING WAY (SB),,,
38.646687,3601,-121.327935,3601,MANZANITA AVE & WINDMILL WAY (SB),,,
38.641707,3602,-121.327992,3602,MANZANITA AVE & LOCUST AVE (SB),,,
38.638388,3603,-121.328193,3603,MANZANITA AVE & CYPRESS AVE (SB),,,
38.637235,3614,-121.327912,3614,MANZANITA AVE & FAIR OAKS BLVD (NB),,,
38.641145,3615,-121.327832,3615,MANZANITA AVE & LINCOLN AVE (NB),,,
38.646197,3616,-121.327733,3616,MANZANITA AVE & JAN DR (NB),,,
38.649826,3617,-121.327583,3617,MANZANITA AVE & WINDING WAY (NB),,,
38.653429,3618,-121.327512,3618,MANZANITA AVE & BOURBON DR (NB),,,
38.655551,3619,-121.327461,3619,MANZANITA AVE & MULDROW RD (NB),,,
38.661242,3620,-121.327281,3620,MANZANITA AVE & MADISON AVE (NB),,,
38.664272,3621,-121.327295,3621,MANZANITA AVE & ELLERSLEE DR (NB),,,
38.666843,3622,-121.327255,3622,MANZANITA AVE & MALEVILLE AVE (NB),,,
38.667953,3623,-121.32658,3623,COYLE AVE & MANZANITA AVE (EB),,,
38.667958,3624,-121.322268,3624,COYLE AVE & WOODLEIGH DR (EB),,,
38.66796,3625,-121.318492,3625,COYLE AVE & HESPER WAY (EB),,,
38.667956,3626,-121.315482,3626,COYLE AVE & MILBURN ST (EB),,,
38.667979,3627,-121.312789,3627,COYLE AVE & ST CHARLES DR (EB),,,
38.667992,3628,-121.310775,3628,COYLE AVE & ST CHARLES DR (EB),,,
38.546913,3650,-121.430107,3650,BROADWAY & 64TH ST (WB),,,
38.546848,3651,-121.43454,3651,BROADWAY & 61ST ST (WB),,,
38.546825,3652,-121.437271,3652,BROADWAY & 59TH ST (WB),,,
38.546803,3653,-121.439545,3653,BROADWAY & 57TH ST (WB),,,
38.546776,3654,-121.441788,3654,BROADWAY & 55TH ST (WB),,,
38.546753,3655,-121.444557,3655,BROADWAY & FAIRGROUNDS DR (WB),,,
38.546799,3656,-121.447609,3656,BROADWAY & 50TH ST (WB),,,
38.546852,3657,-121.450539,3657,BROADWAY & 49TH ST (WB),,,
38.715271,3696,-121.390167,3696,ELVERTA RD & BIG SKY DR (WB),,,
38.71769,3706,-121.271988,3706,SUNRISE BLVD & TWIN OAKS AVE (SB),,,
38.71357,3707,-121.27198,3707,SUNRISE BLVD & STANFORD AVE (SB),,,
38.706932,3708,-121.272057,3708,SUNRISE BLVD & ANTELOPE RD (SB),,,
38.703114,3709,-121.272133,3709,SUNRISE BLVD & OLD AUBURN RD (SB),,,
38.700058,3710,-121.272102,3710,SUNRISE BLVD & VISTA RIDGE DR (SB),,,
38.696281,3711,-121.271888,3711,SUNRISE BLVD & SUNGARDEN DR (SB),,,
38.691717,3712,-121.271853,3712,SUNRISE BLVD & LOCHER WAY (SB),,,
38.685164,3713,-121.271762,3713,SUNRISE BLVD & SAYONARA DR (SB),,,
38.556503,3717,-121.459697,3717,STOCKTON BLVD & MILLER WAY (SB),,,
38.55513,3718,-121.458565,3718,STOCKTON BLVD & COLONIAL WAY (SB),,,
38.554207,3719,-121.457492,3719,STOCKTON BLVD & X ST (SB),,,
38.550781,3720,-121.455544,3720,STOCKTON BLVD & 2ND AVE (SB),,,
38.549484,3721,-121.455071,3721,STOCKTON BLVD & 3RD AVE (SB),,,
38.546684,3722,-121.453209,3722,BROADWAY & STOCKTON BLVD (EB),,,
38.546683,3723,-121.450778,3723,BROADWAY & 49TH ST (EB),,,
38.546673,3724,-121.446522,3724,BROADWAY & 50TH ST (EB),,,
38.546619,3725,-121.444801,3725,BROADWAY & 53RD ST (EB),,,
38.678879,3769,-121.38221,3769,DON JULIO BLVD & WATT AVE (EB),,,
38.67889,3770,-121.37793,3770,DON JULIO BLVD & BOLIVAR AVE (EB),,,
38.679466,3771,-121.375404,3771,DON JULIO BLVD & LARRY WAY (EB),,,
38.681122,3772,-121.372879,3772,DON JULIO BLVD & BELVA WAY (EB),,,
38.683861,3773,-121.370079,3773,DON JULIO BLVD & GARLAND CT (EB),,,
38.686448,3774,-121.367388,3774,DON JULIO BLVD & LARCHMONT DR (EB),,,
38.688106,3775,-121.365672,3775,DON JULIO BLVD & CRAIGHURST DR (EB),,,
38.689536,3776,-121.363601,3776,WALERGA RD & DON JULIO BLVD (NB),,,
38.694966,3777,-121.363529,3777,WALERGA RD & ELKHORN BLVD (NB),,,
38.698002,3778,-121.363518,3778,WALERGA RD & GALBRATH DR (NB),,,
38.702287,3780,-121.363531,3780,WALERGA RD & HOLWORTHY WAY (NB),,,
38.562485,3785,-121.325522,3785,LINC VILL DR & ARIES WAY (EB),,,
38.557415,3787,-121.336105,3787,BRADSHAW RD & OLD PLACER RD (NB),,,
38.560474,3788,-121.33606,3788,BRADSHAW RD & LINCOLN VILLAGE DR (NB),,,
38.561981,3789,-121.334984,3789,LINC VILL DR & EXPLORER DR (EB),,,
38.561707,3790,-121.330626,3790,LINC VILL DR & DRACO DR (EB),,,
38.561673,3791,-121.327882,3791,LINC VILL DR & REDSTONE DR (EB),,,
38.563789,3792,-121.323944,3792,LINC VILL DR & ASTRAL DR (EB),,,
38.563984,3793,-121.32003,3793,LINC VILL DR & SCORPIO DR (EB),,,
38.564663,3794,-121.317963,3794,ROUTIER RD & SYSTEMS PKWY (NB),,,
38.566807,3795,-121.317978,3795,ROUTIER RD & VANGUARD DR (NB),,,
38.569252,3796,-121.317947,3796,ROUTIER RD & ELLENWOOD AVE (NB),,,
38.572256,3798,-121.315981,3798,ROCKINGHAM DR & GOULD WAY (EB),,,
38.572907,3799,-121.31353,3799,ROCKINGHAM DR & GLENMOOR DR (EB),,,
38.573868,3800,-121.310158,3800,ROCKINGHAM DR & NUT PLAINS DR (EB),,,
38.573963,3801,-121.307907,3801,ROCKINGHAM DR & OLD PLACERVILLE RD (EB),,,
38.574017,3802,-121.305763,3802,ROCKINGHAM DR & OLD PLACERVILLE RD (EB),,,
38.587912,3811,-121.285846,3811,WHITE ROCK RD & ZINFANDEL DR (EB),,,
38.588585,3812,-121.281913,3812,WHITE ROCK RD & DATA DR (EB),,,
38.58905,3813,-121.279289,3813,WHITE ROCK RD & PROSPECT PARK DR (EB),,,
38.480629,3827,-121.462883,3827,MACK RD & NIXOS WAY (EB),,,
38.478565,3828,-121.461517,3828,MACK RD & BROOKE MEADOW DR (EB),,,
38.474239,3830,-121.454361,3830,MACK RD & DEER CREEK DR (EB),,,
38.474205,3831,-121.448212,3831,MACK RD & FRANKLIN BLVD (EB),,,
38.474198,3832,-121.443505,3832,MACK RD & TANGERINE AVE (EB),,,
38.474198,3833,-121.44114,3833,MACK RD & SUMMERSDALE DR (EB),,,
38.474173,3834,-121.435915,3834,MACK RD & CENTER PKWY (EB),,,
38.474079,3836,-121.42675,3836,MACK RD & VALLEY HI DR (EB),,,
38.59008,3842,-121.271217,3842,WHITE ROCK RD & KILGORE RD (WB),,,
38.585007,3845,-121.286095,3845,ZINFANDEL DR & DATA DR (SB),,,
38.581634,3846,-121.285438,3846,INTERNATIONAL DR & ZINFANDEL DR (WB),,,
38.580471,3847,-121.287918,3847,INTERNATIONAL DR & QUALITY DR (WB),,,
38.568787,3851,-121.297829,3851,ARMSTRONG & VON KARMAN (EB),,,
38.575176,3852,-121.304085,3852,MATHERFIELD RD & ROCKINGHAM (NB),,,
38.55419,3860,-121.337696,3860,BRANCH CTR & GOETHE RD (NB),,,
38.551735,3861,-121.337959,3861,BRANCH CTR & PRESERVATION WAY (SB),,,
38.549682,3862,-121.337806,3862,BRANCH CTR & PRESERVATION WAY (SB),,,
38.545799,3864,-121.338348,3864,BRANCH CTR & AGRICULTURE LN (SB),,,
38.5447,3865,-121.338968,3865,KIEFER BLVD & BRANCH CENTER (WB),,,
38.547306,3866,-121.348763,3866,KIEFER BLVD & N KIEFER BLVD (WB),,,
38.547405,3867,-121.351822,3867,KIEFER BLVD & ARDERLY CT (WB),,,
38.547398,3868,-121.35466,3868,KIEFER BLVD & HUNTSMAN DR (WB),,,
38.547352,3869,-121.358177,3869,KIEFER BLVD & TALLYHO DR (WB),,,
38.547314,3870,-121.36129,3870,KIEFER BLVD & SOUTHPORT DR (WB),,,
38.547218,3871,-121.368233,3871,KIEFER BLVD & AUTUMNWOOD DR (WB),,,
38.547424,3872,-121.372185,3872,S WATT AVE & KIEFER BLVD (NB),,,
38.571138,3893,-121.418353,3893,FAIR OAKS BLVD & CAMPUS COMMONS RD (EB),,,
38.575386,3894,-121.415176,3894,HOWE AVE & FAIR OAKS BLVD (NB),,,
38.578487,3895,-121.415238,3895,HOWE AVE & SIERRA BLVD (NB),,,
38.582218,3896,-121.41522,3896,HOWE AVE & NORTHROP AVE (NB),,,
38.585124,3897,-121.415247,3897,HOWE AVE & VILLAGE (NB),,,
38.58972,3898,-121.415193,3898,HOWE AVE & HURLEY WAY (NB),,,
38.592523,3899,-121.415199,3899,HOWE AVE & VILLAFONT WAY (NB),,,
38.596993,3900,-121.415283,3900,HOWE AVE & ARDEN WAY (NB),,,
38.600352,3901,-121.415226,3901,HOWE AVE & WYDA WAY (NB),,,
38.602534,3902,-121.415226,3902,HOWE AVE & COTTAGE WAY (NB),,,
38.608831,3903,-121.415212,3903,HOWE AVE & DELMA WAY (NB),,,
38.611201,3904,-121.415226,3904,HOWE AVE & EL CAMINO AVE (NB),,,
38.6152,3905,-121.415258,3905,HOWE AVE & TALLAC ST (NB),,,
38.463867,3910,-121.430801,3910,VALLEY HI DR & CENTER PKWY (WB),,,
38.465183,3911,-121.428146,3911,VALLEY HI DR & HITCHCOCK WAY (NB),,,
38.467659,3912,-121.427162,3912,VALLEY HI DR & GRANDSTAFF DR (NB),,,
38.470665,3913,-121.426637,3913,BRUCEVILLE RD & VALLEY HI DR (EB),,,
38.47234,3914,-121.427094,3914,VALLEY HI DR & MACK RD (NB),,,
38.472908,3939,-121.427338,3939,VALLEY HI DR & MACK RD (SB),,,
38.467064,3941,-121.427284,3941,VALLEY HI DR & GRANDSTAFF DR (SB),,,
38.465233,3942,-121.428314,3942,VALLEY HI DR & LEVERING WAY (SB),,,
38.688503,3950,-121.365624,3950,DON JULIO BLVD & CRAIGHURST DR (WB),,,
38.685631,3951,-121.368584,3951,DON JULIO BLVD & PEARSON LN (WB),,,
38.683006,3953,-121.371193,3953,DON JULIO BLVD & SCOTIA WAY (WB),,,
38.681164,3954,-121.373085,3954,DON JULIO BLVD & BELVA WAY (WB),,,
38.679558,3955,-121.375527,3955,DON JULIO BLVD & LARRY WAY (WB),,,
38.679001,3956,-121.378845,3956,DON JULIO BLVD & BOLIVAR AVE (WB),,,
38.678978,3957,-121.381394,3957,DON JULIO BLVD & SAN MARTIN ST (WB),,,
38.647427,3976,-121.478287,3976,N MARKET BLVD & NORTH FREEWAY BLVD (WB),,,
38.616413,3979,-121.47551,3979,NORTHGATE BLVD & HAGGIN AVE (NB),,,
38.611687,3980,-121.475494,3980,NORTHGATE BLVD & W EL CAMINO AVE (NB),,,
38.619839,3981,-121.475487,3981,NORTHGATE BLVD & INDIANA AVE (NB),,,
38.623123,3982,-121.475487,3982,NORTHGATE BLVD & TENAYA AVE (NB),,,
38.703193,4003,-121.363816,4003,WALERGA RD & ANTELOPE RD (SB),,,
38.699852,4004,-121.363899,4004,WALERGA RD & BAINBRIDGE DR (SB),,,
38.696953,4005,-121.363922,4005,WALERGA RD & GALBRATH DR (SB),,,
38.693688,4006,-121.363922,4006,WALERGA RD & ELKHORN BLVD (SB),,,
38.689674,4007,-121.363915,4007,WALERGA RD & DON JULIO BLVD (SB),,,
38.469135,4015,-121.419777,4015,WYNDHAM DR & BRUCEVILLE RD (WB),,,
38.468712,4016,-121.423019,4016,WYNDHAM DR & LINDBROOK WAY (WB),,,
38.468563,4017,-121.426613,4017,WYNDHAM DR & VALLEY HI DR (WB),,,
38.459496,4019,-121.417259,4019,BRUCEVILLE RD & ALPINE FROST DR (SB),,,
38.468422,4020,-121.42672,4020,WYNDHAM DR & VALLEY HI DR (EB),,,
38.468525,4021,-121.423004,4021,WYNDHAM DR & LINDBROOK WAY (EB),,,
38.468941,4022,-121.419334,4022,WYNDHAM DR & BRUCEVILLE RD (EB),,,
38.574541,4061,-121.295224,4061,DATA DR & INTERNATIONAL DR (NB),,,
38.580147,4064,-121.287926,4064,INTERNATIONAL DR & QUALITY DR (EB),,,
38.582487,4065,-121.284849,4065,ZINFANDEL DR & INTERNATIONAL DR (NB),,,
38.589447,4068,-121.275009,4068,WHITE ROCK RD & PROSPECT PARK DR (EB),,,
38.471958,4081,-121.424538,4081,ALTA VALLEY WAY & BRUCEVILLE RD (NB),,,
38.474353,4083,-121.404822,4083,ELSIE AVE & IONA WAY (EB),,,
38.474157,4084,-121.399477,4084,ELSIE AVE & HALBRITE WAY (EB),,,
38.474178,4085,-121.396238,4085,ELSIE AVE & WILBUR WAY (EB),,,
38.472902,4086,-121.390377,4086,COTTONWOOD LN & ELSIE AVE (SB),,,
38.469485,4087,-121.390337,4087,COTTONWOOD LN & IVY CREEK DR (SB),,,
38.469275,4088,-121.390187,4088,COTTONWOOD LN & IVY CREEK DR (NB),,,
38.473019,4089,-121.390221,4089,COTTONWOOD LN & ELSIE AVE (NB),,,
38.474313,4090,-121.396417,4090,ELSIE AVE & WILBUR WAY (WB),,,
38.474281,4091,-121.399483,4091,ELSIE AVE & HEMINGWAY DR (WB),,,
38.474453,4092,-121.404686,4092,ELSIE AVE & IONA WAY (WB),,,
38.472691,4094,-121.425583,4094,ALTA VALLEY WAY & MACK RD (SB),,,
38.543637,4122,-121.444022,4122,53RD ST & 9TH AVE (SB),,,
38.541165,4124,-121.443982,4124,53RD ST & 12TH AVE (SB),,,
38.483555,4134,-121.51928,4134,RUSH RIVER DR & MONTE BRAZIL DR (WB),,,
38.483856,4136,-121.524735,4136,RUSH RIVER DR & STILL BREEZE WAY (WB),,,
38.48415,4137,-121.531296,4137,RUSH RIVER DR & DELTA WIND DR (WB),,,
38.485542,4140,-121.535668,4140,RUSH RIVER DR & WINDBRIDGE DR (WB),,,
38.487627,4141,-121.53618,4141,IMAI WAY & CECILYN WAY (NB),,,
38.487267,4142,-121.5327,4142,DURFEE WAY & WINDBRIDGE DR (SB),,,
38.484186,4143,-121.532213,4143,RUSH RIVER DR & LAKE FRONT DR (EB),,,
38.483814,4144,-121.524059,4144,RUSH RIVER DR & MARINA COVE DR (EB),,,
38.483662,4145,-121.522606,4145,RUSH RIVER DR & DESERTWIND WAY (EB),,,
38.483158,4146,-121.519959,4146,RUSH RIVER DR & LAKE FRONT DR (EB),,,
38.490646,4147,-121.518189,4147,GREENHAVEN DR & PARK CITY DR (NB),,,
38.491669,4148,-121.521095,4148,GREENHAVEN DR & CORPORATE WAY (NB),,,
38.49478,4149,-121.523726,4149,GREENHAVEN DR & FLORIN RD (NB),,,
38.496323,4150,-121.523384,4150,GREENHAVEN DR & SIX RIVERS CIR (NB),,,
38.499862,4151,-121.523375,4151,GREENHAVEN DR & LORI CT (NB),,,
38.503095,4152,-121.521551,4152,GREENHAVEN DR & GREENHAVEN DR (NB),,,
38.589581,4199,-121.276581,4199,WHITE ROCK RD & PROSPECT PARK DR (WB),,,
38.589226,4200,-121.279717,4200,WHITE ROCK RD & PROSPECT PARK DR (WB),,,
38.574432,4210,-121.305275,4210,ROCKINGHAM DR & MATHER FIELD RD (WB),,,
38.574074,4211,-121.308601,4211,ROCKINGHAM DR & COUNTRYSIDE WAY (WB),,,
38.57394,4213,-121.310455,4213,ROCKINGHAM DR & COUNTRY WAY (WB),,,
38.57291,4214,-121.313652,4214,ROCKINGHAM DR & GLENMOOR DR (WB),,,
38.568054,4215,-121.318108,4215,ROUTIER RD & VANGUARD DR (SB),,,
38.566139,4216,-121.318115,4216,ROUTIER RD & LINCOLN VILLAGE DR (SB),,,
38.572533,4217,-121.315476,4217,ROCKINGHAM DR & GOULD WAY (WB),,,
38.483071,4248,-121.543679,4248,POCKET RD & RIVER VILLAGE DR (NB),,,
38.480702,4249,-121.540886,4249,POCKET RD & WINDBRIDGE DR (WB),,,
38.480499,4250,-121.516792,4250,POCKET RD & GREENHAVEN DR (WB),,,
38.478169,4251,-121.521317,4251,POCKET RD & EAST SHORE DR (WB),,,
38.476938,4252,-121.53253,4252,POCKET RD & WEST SHORE DR (WB),,,
38.478863,4253,-121.537481,4253,POCKET RD & BLACKWATER WAY (EB),,,
38.485424,4255,-121.546227,4255,POCKET RD & OCEANIC WAY (EB),,,
38.487351,4256,-121.54781,4256,POCKET RD & NASCA WAY (EB),,,
38.490601,4257,-121.550377,4257,POCKET RD & RIVER ISLE WAY (WB),,,
38.494849,4258,-121.552475,4258,POCKET RD & RIVERGATE WAY (EB),,,
38.496639,4259,-121.552605,4259,RIVERSIDE BLVD & POCKET RD (EB),,,
38.499886,4260,-121.54998,4260,RIVERSIDE BLVD & CEDAR RIVER WAY (EB),,,
38.501434,4261,-121.548599,4261,RIVERSIDE BLVD & BUOY WAY (EB),,,
38.503182,4262,-121.54705,4262,RIVERSIDE BLVD & PARK RIVIERA WAY (EB),,,
38.505303,4263,-121.545149,4263,RIVERSIDE BLVD & ASHORE WAY (EB),,,
38.507301,4264,-121.544723,4264,RIVERSIDE BLVD & GALLEY CT (NB),,,
38.508837,4265,-121.544382,4265,RIVERSIDE BLVD & PARK RIVIERA WAY 2 (NB),,,
38.510302,4266,-121.542019,4266,RIVERSIDE BLVD & FLORIN RD (EB),,,
38.512203,4267,-121.538887,4267,RIVERSIDE BLVD & SHORESIDE DR 1 (EB),,,
38.512928,4268,-121.535118,4268,RIVERSIDE BLVD & SHORESIDE DR 2 (EB),,,
38.493458,4360,-121.538887,4360,GLORIA DR & RUSH RIVE DR (EB),,,
38.489678,4361,-121.538787,4361,RUSH RIVER DR & BLUE WATER WAY (WB),,,
38.492154,4362,-121.538194,4362,RUSH RIVER DR & HIDDEN COVE CIR (NB),,,
38.493535,4363,-121.541064,4363,GLORIA DR & PEYTONA WAY (WB),,,
38.496873,4364,-121.543634,4364,GLORIA DR & RIVERGATE WAY (NB),,,
38.499029,4365,-121.544363,4365,GLORIA DR & YUBA RIVER CIR (NB),,,
38.501537,4366,-121.544814,4366,PARK RIVIERA WAY & GLORIA DR (WB),,,
38.502666,4367,-121.546882,4367,PARK RIVIERA WAY & RIVERSIDE BLVD (WB),,,
38.544129,4368,-121.39109,4368,FLORIN-PERKINS RD & JACKSON HWY (SB),,,
38.546105,4370,-121.392143,4370,FLORIN-PERKINS RD & KEIFER BLVD (SB),,,
38.54858,4379,-121.406334,4379,FOLSOM BLVD & BICENTENIAL CIR (EB),,,
38.491951,4391,-121.538536,4391,RUSH RIVER DR & GLORIA DR (SB),,,
38.488312,4392,-121.538467,4392,RUSH RIVER DR & DE MAR DR (SB),,,
38.502617,4394,-121.547073,4394,PARK RIVIERA WAY & RIVERSIDE BLVD (EB),,,
38.501019,4395,-121.544594,4395,GLORIA DR & PARK RIVIERA WAY (WB),,,
38.498684,4396,-121.54454,4396,GLORIA DR & YUBA RIVER CIR (EB),,,
38.496121,4397,-121.543396,4397,GLORIA DR & RIVERGATE WAY (WB),,,
38.493569,4398,-121.541489,4398,GLORIA DR & PEYTONA WAY (EB),,,
38.490261,4399,-121.539047,4399,RUSH RIVER DR & LITTLE RIVER WAY (SB),,,
38.474403,4413,-121.410919,4413,ELSIE AVE & ROBINETTE RD (EB),,,
38.474419,4414,-121.414879,4414,ELSIE AVE & LA FIESTA WAY (WB),,,
38.474297,4415,-121.413643,4415,ELSIE AVE & LA FIESTA WAY (EB),,,
38.461209,4439,-121.417346,4439,BRUCEVILLE RD & TIMBERLAKE WAY (NB),,,
38.464728,4440,-121.417373,4440,BRUCEVILLE RD & HOSPITAL DR (NB),,,
38.466436,4441,-121.417822,4441,BRUCEVILLE RD & TIMBERLAKE WAY (NB),,,
38.471317,4443,-121.424828,4443,BRUCEVILLE RD & ALTA VALLEY WAY (WB),,,
38.673425,4603,-121.309829,4603,DEWEY DR & STRATTON AVE (NB),,,
38.677399,4604,-121.310364,4604,DEWEY DR & GREENBACK LN (NB),,,
38.707331,4618,-121.30518,4618,ANTELOPE RD & GARDEN GATE DR (EB),,,
38.70734,4619,-121.298158,4619,ANTELOPE RD & POPLAR AVE (EB),,,
38.70673,4655,-121.291306,4655,ANTELOPE RD & AUBURN BLVD (WB),,,
38.686043,4660,-121.308952,4660,VAN MAREN LN & AUBURN BLVD (SB),,,
38.677708,4661,-121.310532,4661,DEWEY DR & GREENBACK LN (SB),,,
38.673435,4662,-121.310028,4662,DEWEY DR & 5915 (SB),,,
38.647274,4702,-121.479546,4702,N MARKET BLVD & S MARKET CT (EB),,,
38.628857,4703,-121.475746,4703,NORTHGATE BLVD & SAN JUAN RD (SB),,,
38.623367,4704,-121.475647,4704,NORTHGATE BLVD & TENAYA AVE (SB),,,
38.619938,4705,-121.475639,4705,NORTHGATE BLVD & SOTANO DR (SB),,,
38.616188,4706,-121.475647,4706,NORTHGATE BLVD & HAGGIN AVE (SB),,,
38.610672,4707,-121.475647,4707,NORTHGATE BLVD & W EL CAMINO AVE (SB),,,
38.646591,4708,-121.497711,4708,N MARKET BLVD & SIERRA POINT DR (EB),,,
38.64674,4709,-121.508217,4709,ARENA BLVD & TRUXEL RD (EB),,,
38.638125,4710,-121.504456,4710,TRUXEL RD & GATEWAY PARK BLVD (NB),,,
38.646885,4712,-121.48729,4712,N MARKET BLVD & NATIONAL DR (EB),,,
38.707489,4720,-121.316277,4720,ANTELOPE RD & ZENITH DR (WB),,,
38.707432,4721,-121.321854,4721,ANTELOPE RD & SAYBROOK DR (WB),,,
38.715538,4731,-121.372109,4731,ELVERTA RD & TOCCATA WAY (WB),,,
38.707234,4742,-121.322159,4742,ANTELOPE RD & SAYBROOK DR (EB),,,
38.705181,4743,-121.327568,4743,ANTELOPE RD & ROSEVILLE RD (SB),,,
38.707306,4745,-121.314858,4745,ANTELOPE RD & TUPELO DR (EB),,,
38.607056,4750,-121.475449,4750,NORTHGATE BLVD & JEFFERSON AVE (NB),,,
38.607845,4751,-121.475662,4751,NORTHGATE BLVD & NORTHFIELD DR (SB),,,
38.646771,4753,-121.498711,4753,N MARKET BLVD & SPORTS DR (WB),,,
38.647465,4754,-121.476334,4754,N MARKET BLVD & NORTHGATE BLVD (WB),,,
38.578794,4763,-121.487986,4763,J ST & 14TH ST (EB),,,
38.669762,4775,-121.262154,4775,FAIR OAKS BLVD & NIESSEN WAY (NB),,,
38.474423,4777,-121.417702,4777,ELSIE AVE AVE & STOCKTON BLVD (WB),,,
38.474281,4778,-121.417481,4778,ELSIE AVE & STOCKTON BLVD (EB),,,
38.507581,4810,-121.540892,4810,FLORIN RD & WINDWARD WAY (NB),,,
38.504822,4811,-121.538223,4811,FLORIN RD & GLORIA DR (NB),,,
38.647564,4840,-121.452675,4840,BELL AVE & TAYLOR ST (EB),,,
38.647686,4863,-121.448753,4863,BELL AVE & RIO LINDA BLVD (WB),,,
38.647583,4866,-121.456108,4866,BELL AVE & NORWOOD AVE (EB),,,
38.560705,5072,-121.45781,5072,39TH ST & R ST LRT (NB),,,
38.463788,5100,-121.431842,5100,VALLEY HI DR & CENTER PKWY (EB),,,
38.465393,5101,-121.436512,5101,VALLEY HI DR & CHARMETTE WAY (WB),,,
38.466242,5102,-121.440545,5102,VALLEY HI DR & MEADOW PARK WAY (WB),,,
38.466978,5103,-121.44414,5103,VALLEY HI DR & ETHING CT (EB),,,
38.467672,5104,-121.447617,5104,FRANKLIN BLVD & VALLEY HI DR (NB),,,
38.471448,5105,-121.449068,5105,FRANKLIN BLVD & ARMADALE WY (NB),,,
38.470347,5107,-121.427412,5107,VALLEY HI DR & BAMFORD DR (SB),,,
38.473817,5108,-121.45026,5108,FRANKLIN BLVD & MACK RD (SB),,,
38.470642,5109,-121.449028,5109,FRANKLIN BLVD & ARMADALE WY (SB),,,
38.467042,5110,-121.4471,5110,VALLEY HI DR & FRANKLIN BLVD (EB),,,
38.466668,5111,-121.444062,5111,VALLEY HI DR & ETHING CT (WB),,,
38.465833,5112,-121.440008,5112,VALLEY HI DR & MEADOW PARK WAY (EB),,,
38.46428,5113,-121.43506,5113,VALLEY HI DR & VALLEY GREEN DR (EB),,,
38.48337,5200,-121.467367,5200,MEADOWVIEW RD & MEADOWVIEW LRT (NB),,,
38.662168,5201,-121.51046,5201,NATOMAS BLVD & NORTH BEND DR (NB),,,
38.497968,5203,-121.471909,5203,FLORIN RD & INDIAN LN LRT (NB),,,
38.539635,5205,-121.428314,5205,14TH AVE & 65TH ST (WB),,,
38.560682,5207,-121.441438,5207,N ST & RODEO WAY (WB),,,
38.573424,5208,-121.464814,5208,ALHAMBRA BLVD & J ST (NB),,,
38.551008,5209,-121.381695,5209,WISSEMANN DR & FOLSOM BLVD (NB),,,
38.527848,5212,-121.438829,5212,58TH ST & 25TH AVE (SB),,,
38.496043,5223,-121.44122,5223,FLORIN RD & 55TH ST (EB),,,
38.538762,5225,-121.390615,5225,FLORIN-PERKINS RD & BELVEDERE AVE (NB),,,
38.547444,5226,-121.39292,5226,FOLSOM BLVD & JULLIARD DR (WB),,,
38.646031,5239,-121.502846,5239,GATEWAY PARK BLVD & NORTH MARKET BLVD (SB),,,
38.493317,5240,-121.538605,5240,GLORIA DR & RUSH RIVER DR (WB),,,
38.611752,5242,-121.459435,5242,GROVE AVE & EL CAMINO AVE (SB),,,
38.64251,5243,-121.225617,5243,HAZEL AVE & LAKE NIMBUS DR (SB),,,
38.627258,5245,-121.456856,5245,NORWOOD AVE & CARROLL AVE (NB),,,
38.597099,5247,-121.49717,5247,RICHARDS BLVD & SEQUOIA PACIFIC BLVD (EB),,,
38.572109,5249,-121.318077,5249,ROCKINGHAM DR & ROUTIER RD (SB),,,
38.571938,5250,-121.317955,5250,ROUTIER RD & ROCKINGHAM DR (NB),,,
38.483407,5251,-121.526371,5251,RUSH RIVER DR & STILL RIVER WAY (EB),,,
38.579802,5252,-121.500439,5252,L ST & 5TH ST (WB),,,
38.590122,5256,-121.482307,5256,AHERN ST & NORTH C ST (SB),,,
38.590398,5257,-121.485208,5257,NORTH B ST & 12TH ST (WB),,,
38.585933,5259,-121.482645,5259,C ST & 16TH ST (EB),,,
38.589597,5260,-121.482128,5260,NORTH B ST & AHERN ST (WB),,,
38.592743,5261,-121.485068,5261,DOS RIOS ST & SITKA ST (NB),,,
38.681693,5265,-121.310208,5265,VAN MAREN LN & DONEGAL RD (SB),,,
38.606278,5271,-121.463646,5271,ARDEN WAY & COLFAX ST (EB),,,
38.646565,5272,-121.503723,5272,ARENA BLVD & GATEWAY PARK BLVD (EB),,,
38.605901,5285,-121.26705,5285,TRADE CENTER DR & SUNRISE BLVD LRT (EB),,,
38.602622,5289,-121.26934,5289,TRADE CENTER DR & SUNRISE BLVD (EB),,,
38.585515,5305,-121.494328,5305,F ST & 7TH ST (WB),,,
38.595108,5308,-121.497288,5308,BANNON ST & BERCUT DR (NB),,,
38.545445,5312,-121.443982,5312,53RD ST & 7TH AVE (NB),,,
38.513278,5313,-121.504157,5313,BLAIR AVE & BELLEAU WOOD LN (WB),,,
38.505077,5314,-121.533985,5314,GLORIA DR & KEEL CT (EB),,,
38.551083,5315,-121.398762,5315,LAKE FOREST DR & CHESTNUT HILL DR (EB),,,
38.551002,5316,-121.399238,5316,LAKE FOREST DR & CHESTNUT HILL DR (WB),,,
38.552623,5317,-121.396697,5317,LAKE FOREST DR & NOTRE DAME DR (EB),,,
38.553253,5318,-121.395682,5318,LAKE FOREST DR & NOTRE DAME DR (WB),,,
38.553528,5319,-121.393238,5319,LAKE FOREST DR & OCCIDENTAL DR (EB),,,
38.553575,5320,-121.393588,5320,LAKE FOREST DR & OCCIDENTAL DR (WB),,,
38.513008,5321,-121.415133,5321,LOGAN ST & MARALEE (NB),,,
38.548612,5322,-121.398702,5322,NOTRE DAME & MARY KNOLL CT (NB),,,
38.548942,5323,-121.398602,5323,NOTRE DAME & MARY KNOLL CT (SB),,,
38.555855,5324,-121.393635,5324,OCCIDENTAL DR & BENNINGTON WAY (SB),,,
38.555923,5325,-121.393595,5325,OCCIDENTAL DR & BENNINGTON WAY (NB),,,
38.559014,5326,-121.394747,5326,OCCIDENTAL DR & MEDITERRANEAN WAY (NB),,,
38.558442,5327,-121.394563,5327,OCCIDENTAL DR & MEDITERRANEAN WAY (SB),,,
38.595475,5328,-121.481273,5328,RICHARDS BLVD & LOUISE ST (EB),,,
38.620877,5329,-121.498003,5329,TRUXEL RD & PEBBLEWOOD DR (SB),,,
38.52787,5330,-121.412252,5330,VANDENBERG DR & 79TH ST (EB),,,
38.55443,5331,-121.387218,5331,WISSEMANN DR & BELMAR ST (EB),,,
38.554508,5332,-121.387833,5332,WISSEMANN DR & BELMAR ST (WB),,,
38.55443,5333,-121.381575,5333,WISSEMANN DR & BRIGHAM WAY (NB),,,
38.554263,5334,-121.381698,5334,WISSEMANN DR & BRIGHAM WAY (SB),,,
38.554817,5335,-121.383762,5335,WISSEMANN DR & CHIPLAY ST (EB),,,
38.554883,5336,-121.384497,5336,WISSEMANN DR & CHIPLAY ST (WB),,,
38.550805,5338,-121.381773,5338,WISSEMANN DR & FOLSOM BLVD (SB),,,
38.554165,5339,-121.390813,5339,WISSEMANN DR & EVERGLADE DR (EB),,,
38.55431,5340,-121.390477,5340,WISSEMANN DR & EVERGLADE DR (WB),,,
38.561078,5341,-121.45789,5341,39TH ST & R ST (SB),,,
38.546283,5342,-121.444022,5342,53RD ST & BROADWAY (SB),,,
38.576627,5344,-121.466572,5344,29TH ST & G ST (SB),,,
38.657943,5345,-121.512308,5345,NATOMAS BLVD & NEW MARKET DR (SB),,,
38.687223,5346,-121.344342,5346,ANDREA BLVD & ELKHORN BLVD (NB),,,
38.627378,5347,-121.456995,5347,NORWOOD AVE & FORD RD (SB),,,
38.659043,5348,-121.511912,5348,NATOMAS BLVD & NEW MARKET (NB),,,
38.555343,5349,-121.447398,5349,T ST & 49TH ST (EB),,,
38.67712,5351,-121.323183,5351,AUBURN BLVD & SHADOW LN-2 (EB),,,
38.538606,5353,-121.48645,5353,SUTTERVILLE BYPASS & 23RD ST (WB),,,
38.544702,5354,-121.390715,5354,FLORIN-PERKINS RD & JACKSON HWY (NB),,,
38.674692,5359,-121.22584,5359,HAZEL AVE & GLORI DAWN DR (SB),,,
38.638898,5361,-121.29191,5361,SAN JUAN AVE & LINCOLN AVE (SB),,,
38.64434,5362,-121.29195,5362,SAN JUAN AVE & WINDING WAY 2-S (SB),,,
38.678125,5363,-121.297989,5363,GREENBACK LN & PEORIA DR (EB),,,
38.639442,5364,-121.291672,5364,SAN JUAN AVE & SANTA SUSANNA WY (NB),,,
38.561212,5365,-121.48503,5365,21ST ST & X ST (NB),,,
38.660913,5366,-121.385413,5366,PEACEKEEPER WAY & ARNOLD AVE (WB),,,
38.64785,5368,-121.452108,5368,BELL AVE & TAYLOR ST (WB),,,
38.707533,5369,-121.305123,5369,ANTELOPE RD & ROLLINGWOOD WAY (WB),,,
38.524782,6100,-121.498142,6100,FRUITRIDGE RD & MICHAEL WY (WB),,,
38.524405,6101,-121.510838,6101,FRUITRIDGE RD & SOUTH LAND PARK DR (EB),,,
38.548543,6105,-121.40512,6105,FOLSOM BLVD & BICENTENIAL CIR (WB),,,
38.52493,6107,-121.479605,6107,FRUITRIDGE RD & FRUITRIDGE LRT (WB),,,
38.482768,6508,-121.453062,6508,FRANKLIN BLVD & BROOKFIELD DR (NB),,,
38.644922,7000,-121.384812,7000,Watt/I-80 Station (WB),,,
38.642622,7001,-121.39505,7001,Watt/I-80 West Station (WB),,,
38.638011,7002,-121.402665,7002,Roseville Road Station (WB),,,
38.621087,7003,-121.425055,7003,Marconi/Arcade Station (WB),,,
38.61585,7004,-121.430783,7004,Employee Platform Station (WB),,,
38.607435,7005,-121.439848,7005,Swanston Station (WB),,,
38.606247,7006,-121.448177,7006,Royal Oaks Station (WB),,,
38.606316,7007,-121.457376,7007,Arden/Del Paso Station (WB),,,
38.602633,7008,-121.4664,7008,Globe Avenue Station (WB),,,
38.585212,7009,-121.4883,7009,Alkali Flat/La Valentina Station (SB),,,
38.580833,7010,-121.490233,7010,12th & I Station (SB),,,
38.579171,7011,-121.493576,7011,Cathedral Square Station (WB),,,
38.578258,7013,-121.498721,7013,7th & Capitol Station (SB),,,
38.575579,7014,-121.49868,7014,8th & O Station (EB),,,
38.574401,7015,-121.494718,7015,Archives Plaza Station (EB),,,
38.570836,7016,-121.492983,7016,13th Street Station (EB),,,
38.569773,7017,-121.489018,7017,16th Street Station (EB),,,
38.559182,7018,-121.488238,7018,Broadway Station (EB),,,
38.550966,7019,-121.488002,7019,4th Ave/Wayne Hultgren Station (EB),,,
38.541652,7020,-121.485293,7020,City College Station (EB),,,
38.525188,7021,-121.479969,7021,Fruitridge Station (EB),,,
38.511452,7022,-121.475827,7022,47th Avenue Station (EB),,,
38.497317,7023,-121.471467,7023,Florin Station (EB),,,
38.482687,7024,-121.466981,7024,Meadowview Station (EB),,,
38.483607,7025,-121.467258,7025,Meadowview Station (WB),,,
38.498243,7026,-121.471646,7026,Florin Station (WB),,,
38.512383,7027,-121.476017,7027,47th Avenue Station (WB),,,
38.526083,7028,-121.480233,7028,Fruitridge Station (WB),,,
38.542579,7029,-121.485473,7029,City College Station (WB),,,
38.551899,7030,-121.488192,7030,4th Ave/Wayne Hultgren Station (WB),,,
38.560027,7031,-121.487752,7031,Broadway Station (WB),,,
38.570121,7032,-121.489998,7032,16th Street Station (WB),,,
38.571133,7033,-121.493783,7033,13th Street Station (WB),,,
38.574381,7034,-121.494278,7034,Archives Plaza Station (WB),,,
38.575439,7035,-121.498084,7035,8th & O Station (WB),,,
38.577521,7036,-121.49773,7036,8th & Capitol Station (WB),,,
38.579557,7037,-121.495491,7037,St Rose of Lima Park Station (EB),,,
38.578637,7038,-121.492009,7038,Cathedral Square Station (EB),,,
38.581667,7039,-121.489933,7039,12th & I Station (NB),,,
38.585994,7040,-121.487946,7040,Alkali Flat/La Valentina Station (NB),,,
38.603098,7041,-121.465426,7041,Globe Avenue Station (EB),,,
38.606207,7042,-121.456274,7042,Arden/Del Paso Station (EB),,,
38.605943,7043,-121.4474,7043,Royal Oaks Station (EB),,,
38.60805,7044,-121.439033,7044,Swanston Station (EB),,,
38.615787,7045,-121.430707,7045,Employee Platform Station (EB),,,
38.621688,7046,-121.424278,7046,Marconi/Arcade Station (EB),,,
38.638483,7047,-121.40145,7047,Roseville Road Station (EB),,,
38.643081,7048,-121.394052,7048,Watt/I-80 West Station (EB),,,
38.645012,7049,-121.383651,7049,Watt/I-80 Station (EB),,,
38.566433,7050,-121.47855,7050,23rd Street Station (EB),,,
38.564317,7051,-121.47055,7051,29th Street Station (EB),,,
38.560463,7052,-121.456583,7052,39th Street Station (EB),,,
38.5582,7053,-121.4483,7053,48th Street Station (EB),,,
38.554607,7054,-121.43524,7054,59th Street Station (EB),,,
38.5523,7055,-121.426566,7055,University/65th Street Station (EB),,,
38.547217,7056,-121.406916,7056,Power Inn Station (EB),,,
38.547077,7057,-121.392775,7057,College Greens Station (EB),,,
38.554066,7058,-121.372654,7058,Watt/Manlove Station (EB),,,
38.559731,7059,-121.361369,7059,Starfire Station (EB),,,
38.564211,7060,-121.352457,7060,Tiber Station (EB),,,
38.567361,7061,-121.346062,7061,Butterfield Station (EB),,,
38.584973,7062,-121.310611,7062,Mather Field/Mills Station (EB),,,
38.595294,7063,-121.289773,7063,Zinfandel Station (EB),,,
38.59887,7064,-121.282502,7064,Cordova Town Center Station (EB),,,
38.606965,7065,-121.266108,7065,Sunrise Station (EB),,,
38.606523,7066,-121.267248,7066,Sunrise Station (WB),,,
38.598441,7067,-121.283655,7067,Cordova Town Center Station (WB),,,
38.594833,7068,-121.290917,7068,Zinfandel Station (WB),,,
38.584483,7069,-121.311617,7069,Mather Field/Mills Station (WB),,,
38.566977,7070,-121.347087,7070,Butterfield Station (WB),,,
38.563817,7071,-121.353483,7071,Tiber Station (WB),,,
38.559245,7072,-121.362547,7072,Starfire Station (WB),,,
38.553684,7073,-121.373651,7073,Watt/Manlove Station (WB),,,
38.547035,7074,-121.393899,7074,College Greens Station (WB),,,
38.547483,7075,-121.4081,7075,Power Inn Station (WB),,,
38.552648,7076,-121.427486,7076,University/65th Street Station (WB),,,
38.554995,7077,-121.436289,7077,59th Street Station (WB),,,
38.558592,7078,-121.449346,7078,48th Street Station (WB),,,
38.56087,7079,-121.457653,7079,39th Street Station (WB),,,
38.564667,7080,-121.47155,7080,29th Street Station (WB),,,
38.566701,7081,-121.479207,7081,23rd Street Station (WB),,,
38.630621,7082,-121.211678,7082,Hazel Station (EB),,,
38.644967,7083,-121.189683,7083,Iron Point Station (EB),,,
38.663667,7084,-121.183633,7084,Glenn Station (EB),,,
38.67635,7085,-121.180717,7085,Historic Folsom Station (EB),,,
38.67545,7086,-121.180467,7086,Historic Folsom Station (WB),,,
38.662733,7087,-121.183667,7087,Glenn Station (WB),,,
38.644317,7088,-121.190567,7088,Iron Point Station (WB),,,
38.630217,7089,-121.212754,7089,Hazel Station (WB),,,
38.582585,7090,-121.496864,7090,7th & I/County Center Station (SB),,,
38.580371,7091,-121.496515,7091,8th & K Station (NB),,,
38.584627,7092,-121.500439,7092,Sacramento Valley Station (WB),,,
38.584323,7093,-121.499307,7093,Sacramento Valley Station (EB),,,
38.596304,7094,-121.491698,7094,Township 9 Station (WB),,,
38.58292,7095,-121.495389,7095,8th & H Station (NB),,,
38.596128,7096,-121.491473,7096,Township 9 Station (EB),,,
38.453234,7097,-121.418322,7097,CRC Station (SB),,,
38.454141,7098,-121.418263,7098,CRC Station (NB),,,
38.465759,7099,-121.46303,7099,Morrison Creek Station (SB),,,
38.46665,7100,-121.463179,7100,Morrison Creek Station (NB),,,
38.462785,7101,-121.448058,7101,Franklin Station (EB),,,
38.463285,7102,-121.449009,7102,Franklin Station (WB),,,
38.458599,7103,-121.429365,7103,Center Parkway Station (EB),,,
38.458941,7104,-121.430422,7104,Center Parkway Station (WB),,,
38.589126,8001,-121.275845,8001,PROSPECT PARK DR & WHITE ROCK RD (SB),,,
38.584614,8002,-121.27578,8002,PROSPECT PARK DR & TOWER PARK (SB),,,
38.580253,8003,-121.275029,8003,BAROQUE DR & PELARA WAY (WB),,,
38.578635,8004,-121.277668,8004,BAROQUE DR & CORVINA DR (WB),,,
38.579406,8005,-121.281649,8005,ZINFANDEL DR & FROGS LEAP DR (NB),,,
38.581182,8006,-121.274396,8006,PROSPECT PARK DR & FIORE DR (NB),,,
38.583816,8007,-121.275481,8007,PROSPECT PARK DR & INTERNATIONAL DR (NB),,,
38.515638,8037,-121.415153,8037,LOGAN ST & LEMON HILL AVE (NB),,,
38.517883,8038,-121.41416,8038,39TH AVE & WILKINSON ST (EB),,,
38.517975,8039,-121.414178,8039,39TH AVE & WILKINSON ST (WB),,,
38.51916,8040,-121.411735,8040,79TH ST & 38TH AVE (NB),,,
38.521942,8041,-121.411735,8041,79TH ST & 35TH AVE (NB),,,
38.524495,8042,-121.411735,8042,79TH ST & 32ND AVE (NB),,,
38.526233,8043,-121.411735,8043,79TH ST & 28TH AVE (NB),,,
38.55886,8045,-121.458694,8045,39TH ST & T ST (NB),,,
38.526478,8049,-121.411835,8049,79TH ST & 28TH AVE (SB),,,
38.523793,8050,-121.411835,8050,79TH ST & 32ND AVE (SB),,,
38.52171,8051,-121.411835,8051,79TH ST & 35TH AVE (SB),,,
38.518758,8052,-121.411815,8052,79TH ST & 38TH AVE (SB),,,
38.515462,8054,-121.415272,8054,LOGAN ST & LEMON HILL AVE (SB),,,
38.53614,8302,-121.498342,8302,SUTTERVILLE RD & 17TH AVE (EB),,,
38.535324,8303,-121.49423,8303,SUTTERVILLE RD & 19TH ST (EB),,,
38.541262,8305,-121.468458,8305,12TH AVE & 36TH ST (WB),,,
38.539807,8306,-121.46522,8306,14TH AVE & M L KING JR BLVD (WB),,,
38.536032,8315,-121.4984,8315,SUTTERVILLE RD & MEAD AVE (WB),,,
38.541185,8316,-121.470883,8316,12TH AVE & 33RD ST (EB),,,
38.54107,8317,-121.467447,8317,14TH AVE & 36TH ST (EB),,,
38.670853,8900,-121.508493,8900,CLUB CENTER DR & NATOMAS BLVD (WB),,,
38.670853,8901,-121.51046,8901,CLUB CENTER & BANFIELD (WB),,,
38.671425,8902,-121.515487,8902,CLUB CENTER & DUNLAY (WB),,,
38.672573,8903,-121.519222,8903,NORTHBOROUGH & CLUB CENTER (SB),,,
38.669792,8904,-121.517832,8904,NORTHBOROUGH & WADSWORTH (SB),,,
38.666602,8905,-121.517335,8905,NORTHBOROUGH & NORTH PARK (SB),,,
38.665772,8906,-121.513918,8906,NORTH PARK DR & FREDERICKSBURG WAY (EB),,,
38.665602,8907,-121.51052,8907,NORTH PARK DR & BANFIELD DR (EB),,,
38.665422,8908,-121.508533,8908,NORTH PARK DR & NATOMAS BLVD (EB),,,
38.655552,8909,-121.512288,8909,TRUXEL RD & DEL PASO RD (SB),,,
38.646257,8910,-121.509168,8910,TRUXEL RD & ARENA BLVD (SB),,,
38.65149,8911,-121.511573,8911,TRUXEL RD & TERRACINA DR (SB),,,
38.639823,8912,-121.507838,8912,TRUXEL RD & NATOMAS CROSSING DR (SB),,,
38.638051,8913,-121.505216,8913,TRUXEL RD & GATEWAY PARK BLVD (SB),,,
38.626948,8914,-121.498023,8914,TRUXEL RD & SAN JUAN RD (SB),,,
38.624135,8915,-121.498003,8915,TRUXEL RD & TERALBA WAY (SB),,,
38.618592,8917,-121.497983,8917,TRUXEL RD & PEBBLESTONE WAY (SB),,,
38.61663,8918,-121.497983,8918,TRUXEL RD & BLUE HERON CT (SB),,,
38.611945,8919,-121.498023,8919,TRUXEL RD & W. EL CAMINO AVE (SB),,,
38.608917,8920,-121.497963,8920,TRUXEL RD & GARDEN HWY (SB),,,
38.608957,8921,-121.497685,8921,TRUXEL RD & GARDEN HWY (NB),,,
38.614042,8922,-121.497725,8922,TRUXEL RD & W. EL CAMINO AVE (NB),,,
38.617165,8923,-121.497725,8923,TRUXEL RD & BREWERTON DR (NB),,,
38.61924,8924,-121.497745,8924,TRUXEL RD & PEBBLESTONE WAY (NB),,,
38.62164,8925,-121.497765,8925,TRUXEL RD & PEBBLEWOOD DR (NB),,,
38.624678,8926,-121.497765,8926,TRUXEL RD & MILL OAK WAY (NB),,,
38.628045,8927,-121.497725,8927,TRUXEL RD & SAN JUAN RD (NB),,,
38.640968,8928,-121.508175,8928,TRUXEL RD & NATOMAS CROSSING DR (NB),,,
38.647742,8929,-121.508772,8929,TRUXEL RD & ARENA BLVD (NB),,,
38.650422,8930,-121.509943,8930,TRUXEL RD & TERRACINA DR (NB),,,
38.553755,8958,-121.41855,8958,STATE UNIV DR EAST & COLLEGE TOWN DR (SB),,,
38.553563,8959,-121.418352,8959,STATE UNIV DR EAST & COLLEGE TOWN DR (NB),,,
38.645202,9800,-121.383024,9800,WATT AVE & I-80 LRT (NB),,,
38.645132,9801,-121.383345,9801,WATT AVE & I-80 LRT (SB),,,
38.606323,9807,-121.456783,9807,ARDEN WAY & DEL PASO BLVD LRT (EB),,,
38.564326,9811,-121.471974,9811,29TH ST & R ST (SB),,,
38.564022,9812,-121.470467,9812,30TH ST & R ST (NB),,,
38.547039,9816,-121.394356,9816,COLLEGE GREENS & LRT (EB),,,
38.553508,9817,-121.372476,9817,WATT/MANLOVE LRS & BAY 3 (SB),,,
38.567421,9920,-121.345741,9920,BUTTERFIELD WAY & FOLSOM BLVD LRT (WB),,,
38.572122,9921,-121.295143,9921,PETER A MCCUEN & MATHER FIELD RD (EB),,,
38.571392,9922,-121.294083,9922,BLECKLEY ST & SCHIRRA AVE (SB),,,
38.571209,9928,-121.306694,9928,OLD PLACERVILLE RD & SCHRIEVER AVE (NB),,,
38.702287,9933,-121.330956,9933,ANTELOPE RD & ROSEVILLE RD (EB),,,
38.631572,9939,-121.355144,9939,MISSION AVE & ENGLE RD (NB),,,
38.65966,11002,-121.130662,11002,E BIDWELL ST & NESMITH CT PAST COLLEGE ENTRANCE (SB),,,
38.670296,11010,-121.163303,11010,RILEY ST & GLENN DR (NB),,,
38.642888,11022,-121.178668,11022,IRON POINT RD & BLACK DIAMOND DR (WB),,,
38.642525,11024,-121.188721,11024,IRON POINT RD & FOLSOM BLVD (WB),,,
38.675024,11028,-121.174017,11028,RILEY ST & NATOMA ST (SB),,,
38.691916,11029,-121.157731,11029,CA STATE PRISON  & FOLSOM PRISON RD (WB),,,
38.661137,11033,-121.126505,11033,SCHOLAR WAY & FLC PARKING LOT/ADMIN BLDG (EB),,,
38.652991,11034,-121.123122,11034,BROADSTONE PKWY & E BIDWELL ST (WB),,,
38.655316,11035,-121.124506,11035,E BIDWELL ST & POWER CENTER DR (SB),,,
38.648756,11036,-121.121862,11036,PALLADIO PKWY & BTW BROADSTONE & IRON POINT RD (SB),,,
38.669889,11039,-121.148064,11039,CREEKSIDE DR & 1600 CREEKSIDE DR (EB),,,
38.670893,11040,-121.145976,11040,CREEKSIDE DR & 1650 CREEKSIDE DR (EB),,,
38.672712,11042,-121.135147,11042,N LEXINGTON DR & AINSWORTH WAY (EB),,,
38.673822,11043,-121.130158,11043,N LEXINGTON DR & WESLEYAN WAY (EB),,,
38.693824,11044,-121.189503,11044,AMERICAN RIVER CANYON DR & RIVER RIDGE WAY (NB),,,
38.669603,11045,-121.120324,11045,PREWETT DR & SILBERHORN DR (EB),,,
38.66541,11046,-121.119966,11046,SILBERHORN DR & S LEXINGTON DR (SB),,,
38.682842,11047,-121.19159,11047,AMERICAN RIVER CANYON DR & BOBWHITE LN (NB),,,
38.659613,11048,-121.124439,11048,SCHOLAR WAY & FLC MAIN ENTRANCE (WB),,,
38.669881,11050,-121.156068,11050,E BIDWELL ST & MONTROSE DR (SB),,,
38.698962,11063,-121.189646,11063,AMERICAN RIVER CANYON DRIVE & OAK AVE (NB),,,
38.688547,11064,-121.186693,11064,AMERICAN RIVER CANYON DR & GREY CANYON DR (NB),,,
38.68488,11065,-121.18873,11065,AMERICAN RIVER CANYON DR & BOULDER CANYON WAY (NB),,,
38.677369,11066,-121.196848,11066,MADISON AVE & GREENBACK LANE (WB),,,
38.677059,11069,-121.202255,11069,MAIN AVE & GREENBACK LANE (NB),,,
38.677962,11070,-121.198577,11070,GREENBACK LN & MADISON AVE (EB),,,
38.670844,11071,-121.161777,11071,WALES DR & E BIDWELL ST (EB),,,
38.645006,11081,-121.18627,11081,NATOMA STATION DR & NATOMA STATION DR (NB),,,
38.647269,11082,-121.182579,11082,NATOMA STATION DR & PARKER DR (NB),,,
38.649321,11083,-121.179961,11083,NATOMA STATION DR & TURN PIKE DR (NB),,,
38.653896,11084,-121.177686,11084,NATOMA STATION DR & SEATON DR (NB),,,
38.654615,11085,-121.177306,11085,BLUE RAVINE RD & NATOMA STATION DR (EB),,,
38.655656,11086,-121.172429,11086,BLUE RAVINE RD & SEATON DR (EB),,,
38.655907,11087,-121.168867,11087,PRAIRIE CITY RD & BLUE RAVINE RD (SB),,,
38.65155,11088,-121.165531,11088,PRAIRIE CITY RD & WILLARD DR (SB),,,
38.651609,11091,-121.12364,11091,BROADSTONE PKWY & PALLADIO PKWY (EB),,,
38.655874,11094,-121.092322,11094,EMPIRE RANCH RD & PALOMINO COURT (NB),,,
38.664746,11095,-121.096104,11095,EMPIRE RANCH RD & WOODHEAD ST (NB),,,
38.67237,11096,-121.099471,11096,E NATOMA ST & EMPIRE RANCH RD (WB),,,
38.676004,11097,-121.107413,11097,E NATOMA ST & WESLEY DR (WB),,,
38.677553,11098,-121.109344,11098,E NATOMA ST & BONHILL DR (WB),,,
38.685778,11099,-121.112906,11099,E NATOMA ST & EMPIRE RANCH GOLFCLUB (WB),,,
38.690392,11101,-121.120416,11101,E NATOMA ST & BALLOU CIRCLE (WB),,,
38.669998,11102,-121.163213,11102,RILEY ST & GLENN DR (SB),,,
38.672392,11104,-121.136631,11104,CREEKSIDE DR & OAK AVE PKWY (EB),,,
38.670476,11105,-121.123788,11105,PREWETT DR & KILSBY ST (EB),,,
38.673223,11106,-121.125692,11106,PREWETT DR & N LEXINGTON DR (SB),,,
38.662367,11107,-121.121277,11107,SILBERHORN DR & WENHAM WAY (SB),,,
38.670465,11108,-121.135195,11108,OAK AVE PKWY & CREEKSIDE DR (SB),,,
38.645864,11109,-121.127264,11109,IRON POINT RD & BROADSTONE PKWY (WB),,,
38.64441,11110,-121.19022,11110,IRON POINT LIGHT RAIL STATION & NATOMA STATION DR (WB),,,
38.649334,11114,-121.154292,11114,IRON POINT RD & GROVER RD (EB),,,
38.645945,11116,-121.141274,11116,IRON POINT RD & OAK AVE PKWY (EB),,,
38.644935,11117,-121.132475,11117,IRON POINT RD & ROWBERRY DR (EB),,,
38.64551,11118,-121.133656,11118,IRON POINT RD & ROWBERRY DR (WB),,,
38.64571,11119,-121.14314,11119,IRON POINT RD & OAK AVE PKWY (WB),,,
38.647964,11120,-121.150467,11120,IRON POINT RD & MCADOO DR (WB),,,
38.649615,11121,-121.154088,11121,IRON POINT RD & GROVER RD (WB),,,
38.645453,11122,-121.124591,11122,IRON POINT RD & BROADSTONE PKWY (EB),,,
38.645464,11123,-121.120912,11123,IRON POINT RD & SHOPPING CENTER (EB),,,
38.65634,11125,-121.12525,11125,E BIDWELL ST & POWER CENTER DR (NB),,,
38.666236,11127,-121.135772,11127,OAK AVE PKWY & S. LEXINGTON DR (SB),,,
38.662375,11128,-121.121092,11128,SILBERHORN DR & WENHAM WAY (NB),,,
38.665282,11129,-121.119858,11129,SILBERHORN DR & FAYETTE WAY (NB),,,
38.669336,11130,-121.119837,11130,SILBERHORN DR & PREWETT DR (NB),,,
38.67133,11131,-121.124643,11131,PREWETT DR & BTW KILSBY ST & NEWINGTON WAY (WB),,,
38.673692,11132,-121.133612,11132,N LEXINGTON DR & WRENTHAM ST (WB),,,
38.66694,11133,-121.134996,11133,OAK AVE PKWY & S LEXINGTON DR (NB),,,
38.670256,11134,-121.13476,11134,OAK AVE PKWY & N LEXINGTON DR (NB),,,
38.671819,11135,-121.13965,11135,CREEKSIDE DR & 1780 CREEKSIDE DR (EB),,,
38.672553,11136,-121.137056,11136,CREEKSIDE DR & OAK AVE PKWY (WB),,,
38.672356,11137,-121.142083,11137,CREEKSIDE DR & 1715 CREEKSIDE DR (WB),,,
38.67135,11138,-121.145495,11138,CREEKSIDE DR & 1617 CREEKSIDE DR (WB),,,
38.670363,11139,-121.147671,11139,CREEKSIDE DR & E BIDWELL ST (WB),,,
38.669152,11140,-121.151937,11140,E BIDWELL ST & BLUE RAVINE RD (NB),,,
38.672243,11143,-121.170815,11143,RILEY ST & E BIDWELL ST (NB),,,
38.675778,11145,-121.199051,11145,MADISON AVE & 9465 MADISON AVE (WB),,,
38.655111,11148,-121.186023,11148,WOODMERE RD & 107 WOODMERE RD (WB),,,
38.652564,11149,-121.188898,11149,WOODMERE RD & 90 WOODMERE RD (SB),,,
38.651129,11150,-121.185378,11150,BLUE RAVINE RD & 140 BLUE RAVINE RD (EB),,,
38.653117,11151,-121.184038,11151,BLUE RAVINE RD & LAKE FOREST WAY (EB),,,
38.649021,11156,-121.164018,11156,IRON POINT RD & PRAIRIE CITY RD (WB),,,
38.65889,11157,-121.127197,11157,SCHOLAR WAY & CAVITT DR (EB),,,
38.676083,11159,-121.180117,11159,HISTORIC FOLSOM LIGHT RAIL STATION & SUTTER ST (NB),,,
38.680409,11161,-121.162767,11161,WALES DR & NATOMA ST (EB),,,
38.680049,11162,-121.162741,11162,WALES DR & DEAN WAY (SB),,,
38.662983,11163,-121.183446,11163,COOLIDGE DR & GLENN LRT STN (SB),,,
38.685602,11167,-121.119504,11167,PARKWAY DR & BONANZA LANE (SB),,,
38.681875,11168,-121.119343,11168,PARKWAY DR & SCHIEDIGGER CIRCLE (SB),,,
38.679069,11169,-121.121757,11169,PARKWAY DR & BRIDGE (SB),,,
38.677796,11170,-121.127357,11170,PARKWAY DR & WILLOW BEND RD (WB),,,
38.675987,11171,-121.136922,11171,OAK AVE PKWY & OAK AVE PKWY (SB),,,
38.657164,11172,-121.124182,11172,CAVITT DR & LOTHIAN WAY (SB),,,
38.656703,11173,-121.120116,11173,CAVITT DR & BROADSTONE PKWY (SB),,,
38.658555,11174,-121.110572,11174,BROADSTONE PKWY & SERPA WAY (EB),,,
38.65645,11175,-121.104163,11175,BROADSTONE PKWY & EAGLE WAY (EB),,,
38.656661,11179,-121.103958,11179,BROADSTONE PKWY & EAGLES WAY (WB),,,
38.658923,11180,-121.111243,11180,BROADSTONE PKWY & SERPA WAY (WB),,,
38.656418,11181,-121.118968,11181,CAVITT DR & HILLSWICK WAY (NB),,,
38.657767,11182,-121.124407,11182,CAVITT DR & LOTHIAN WAY (NB),,,
38.673089,11184,-121.135608,11184,OAK AVE PKWY & NORTH LEXINGTON DR (NB),,,
38.677846,11185,-121.127604,11185,PARKWAY DR & HUMBUG CREEK DR (EB),,,
38.678952,11186,-121.121618,11186,PARKWAY DR & KIDDER WAY (EB),,,
38.681477,11187,-121.119134,11187,PARKWAY DR & DALL WAY (EB),,,
38.684907,11188,-121.119075,11188,PARKWAY DR & MORGANITE CT (EB),,,
38.690124,11189,-121.120427,11189,E NATOMA ST & BALLOU CIRCLE (EB),,,
38.686414,11190,-121.113839,11190,E NATOMA ST & FERGUSEN WAY (EB),,,
38.683542,11191,-121.112434,11191,E NATOMA ST & JENKINS WAY (EB),,,
38.680309,11192,-121.111286,11192,E NATOMA ST & BOWEN DR (EB),,,
38.676565,11193,-121.108775,11193,E NATOMA ST & GOLF LINKS DR (EB),,,
38.672176,11194,-121.099602,11194,E NATOMA ST & EMPIRE RANCH RD (EB),,,
38.664486,11196,-121.096351,11196,EMPIRE RANCH RD & WOODHEAD ST (SB),,,
38.656011,11197,-121.09282,11197,EMPIRE RANCH RD & BROADSTONE PKWY (SB),,,
38.647851,11199,-121.120346,11199,PALLADIO PKWY & ACROSS FROM KAISER HOSPITAL (NB),,,
38.67107,11201,-121.161845,11201,WALES DR & BTW E BIDWELL & RILEY ST (WB),,,
38.681707,11202,-121.163256,11202,NATOMA ST & WALES DR (WB),,,
38.673566,11203,-121.173073,11203,BIDWELL ST & RILEY ST (WB),,,
38.671866,11204,-121.170841,11204,RILEY ST & E BIDWELL ST (SB),,,
38.670802,11205,-121.167467,11205,RILEY ST & WALMART SHOPPING CENTER (SB),,,
38.681389,11206,-121.163363,11206,NATOMA ST & WALES DR (EB),,,
38.647679,11207,-121.168889,11207,IRON POINT RD & WILLARD DR (WB),,,
38.679128,11209,-121.129063,11209,BLUE RAVINE RD & JORGENSEN RD (WB),,,
38.677922,11210,-121.132851,11210,BLUE RAVINE RD & BIG VALLEY RD (WB),,,
38.674521,11211,-121.105213,11211,E NATOMA ST & WESLEY DR (EB),,,
38.673968,11212,-121.129981,11212,N LEXINGTION DR & WESLEYAN WAY (WB),,,
38.67682,11213,-121.136091,11213,BLUE RAVINE RD & OAK AVE PKWY (EB),,,
38.663382,11216,-121.172311,11216,GLENN DRIVE & SIBLEY STREET (WB),,,
38.663745,11219,-121.171189,11219,GLENN DRIVE & SIBLEY ST (EB),,,
38.646695,11221,-121.150013,11221,IRON POINT RD & BETWEEN MCADOO AND OUTCROPPING (EB),,,
38.421955,85091,-121.4074,85091,LAGUNA BLVD & BIG HORN BLVD (WB),,,
38.423459,85092,-121.413279,85092,LAGUNA BLVD & TRENHOLM DR (WB),,,
38.42329,85145,-121.417103,85145,LAGUNA BLVD & BRUCEVILLE RD (EB),,,
38.423063,85146,-121.412971,85146,LAGUNA BLVD & TRENHOLM DR (EB),,,
38.409634,85173,-121.417463,85173,BRUCEVILLE RD & ELK GROVE BLVD (NB),,,
38.411928,85174,-121.417442,85174,BRUCEVILLE RD & SOARING OAKS DR (NB),,,
38.419547,85175,-121.417665,85175,BRUCEVILLE RD & SOARING OAKS DR (NB),,,
38.422721,85178,-121.418138,85178,BRUCEVILLE RD & LAGUNA BLVD (SB),,,
38.418291,85179,-121.418028,85179,BRUCEVILLE RD & SEASONS DR (SB),,,
38.416237,85180,-121.417954,85180,BRUCEVILLE RD & BEAVER FALLS WY (SB),,,
38.410802,85181,-121.417858,85181,BRUCEVILLE RD & KILCONNELL DR (SB),,,
38.421611,85200,-121.405473,85200,LAGUNA BLVD & BIG HORN BLVD (EB),,,
38.422055,85201,-121.402579,85201,LAGUNA BLVD & ELK GROVE CREEK BRIDGE (EB),,,
38.424284,85202,-121.390107,85202,EAST STOCKTON BLVD & BOND RD (NB),,,
38.425428,85203,-121.393569,85203,EAST STOCKTON BLVD & MARKETPLACE 99 (NB),,,
38.42515,85204,-121.392072,85204,EAST STOCKTON BLVD & IHOP (EB),,,
38.423881,85205,-121.391103,85205,BOND RD & EAST STOCKTON BLVD (WB),,,
38.422955,85206,-121.400951,85206,LAGUNA BLVD & WEST STOCKTON BLVD (WB),,,
38.422526,85207,-121.402334,85207,LAGUNA BLVD & LAGUNA CREEK BRIDGE (WB),,,
38.393313,85265,-121.417882,85265,BRUCEVILLE RD & WHITELOCK PKWY (SB),,,
38.427942,85401,-121.396818,85401,EAST STOCKTON BLVD & SOUTH EAST LAWN MORTUARY (NB),,,
38.431779,85402,-121.398548,85402,EAST STOCKTON BLVD & FIRST BAPTIST CHURCH (NB),,,
38.435603,85403,-121.398623,85403,EAST STOCKTON BLVD & SHELDON RD (NB),,,
38.435401,85406,-121.399183,85406,EAST STOCKTON BLVD & SHELDON RD (SB),,,
38.425432,85408,-121.39531,85408,EAST STOCKTON BLVD & STAPLES (SB),,,
38.398256,85640,-121.417467,85640,BRUCEVILLE RD & DEL WEBB BLVD (NB),,,
38.402964,85641,-121.417404,85641,BRUCEVILLE RD & BARCELLA DR (NB),,,
38.402301,95619,-121.41785,95619,BRUCEVILLE BLVD & ACKLEY DR (SB),,,
,,,,,,,
,,,,,,,
,,,,,,,
,,,,,,,
,,,,,,,
,,,,,,,
,,,,,,,
,,,,,,,
,,,,,,,
,,,,,,,
,,,,,,,
,,,,,,,
,,,,,,,
,,,,,,,
,,,,,,,
,,,,,,,
,,,,,,,
,,,,,,,
,,,,,,,
,,,,,,,
,,,,,,,
,,,,,,,
,,,,,,,
,,,,,,,
,,,,,,,
,,,,,,,
,,,,,,,
,,,,,,,
,,,,,,,
,,,,,,,
,,,,,,,
,,,,,,,
,,,,,,,
,,,,,,,
,,,,,,,
,,,,,,,
,,,,,,,
,,,,,,,
,,,,,,,
,,,,,,,
,,,,,,,
,,,,,,,
,,,,,,,
,,,,,,,
,,,,,,,
,,,,,,,
,,,,,,,
,,,,,,,
,,,,,,,
,,,,,,,
,,,,,,,
,,,,,,,
,,,,,,,
,,,,,,,
,,,,,,,
,,,,,,,
,,,,,,,
,,,,,,,
,,,,,,,
,,,,,,,
,,,,,,,
,,,,,,,
,,,,,,,
,,,,,,,
,,,,,,,
,,,,,,,
,,,,,,,
,,,,,,,
,,,,,,,
,,,,,,,
,,,,,,,
,,,,,,,
,,,,,,,
,,,,,,,
,,,,,,,
,,,,,,,
,,,,,,,
,,,,,,,
,,,,,,,
,,,,,,,
,,,,,,,
,,,,,,,
,,,,,,,
,,,,,,,
,,,,,,,
,,,,,,,
,,,,,,,
,,,,,,,
,,,,,,,
,,,,,,,
,,,,,,,
,,,,,,,
,,,,,,,
,,,,,,,
,,,,,,,
,,,,,,,
,,,,,,,
,,,,,,,
,,,,,,,
,,,,,,,
,,,,,,,
,,,,,,,
,,,,,,,
,,,,,,,
,,,,,,,
,,,,,,,
,,,,,,,
,,,,,,,
,,,,,,,
,,,,,,,
,,,,,,,
,,,,,,,
,,,,,,,
,,,,,,,
,,,,,,,
,,,,,,,
,,,,,,,
,,,,,,,
,,,,,,,
,,,,,,,
,,,,,,,
,,,,,,,
,,,,,,,
,,,,,,,
